{
  "india": [
    {
      "_id": "59426b2dfea8d3eaf2abe132",
      "city": "Mumbai",
      "longitude": 72.8776559,
      "latitude": 19.0759837
    },
    {
      "_id": "59426b2dfea8d3eaf2abe133",
      "city": "Delhi",
      "longitude": 77.10249019999999,
      "latitude": 28.7040592
    },
    {
      "_id": "59426b2dfea8d3eaf2abe135",
      "city": "Ahmedabad",
      "longitude": 72.5713621,
      "latitude": 23.022505
    },
    {
      "_id": "59426b2dfea8d3eaf2abe136",
      "city": "Hyderabad",
      "longitude": 78.486671,
      "latitude": 17.385044
    },
    {
      "_id": "59426b2dfea8d3eaf2abe137",
      "city": "Chennai",
      "longitude": 80.2707184,
      "latitude": 13.0826802
    },
    {
      "_id": "59426b2dfea8d3eaf2abe138",
      "city": "Kolkata",
      "longitude": 88.36389500000001,
      "latitude": 22.572646
    },
    {
      "_id": "59426b2dfea8d3eaf2abe139",
      "city": "Pune",
      "longitude": 73.8567437,
      "latitude": 18.5204303
    },
    {
      "_id": "59426b2dfea8d3eaf2abe13a",
      "city": "Jaipur",
      "longitude": 75.7872709,
      "latitude": 26.9124336
    },
    {
      "_id": "59426b2dfea8d3eaf2abe13b",
      "city": "Surat",
      "longitude": 72.83106070000001,
      "latitude": 21.1702401
    },
    {
      "_id": "59426b2dfea8d3eaf2abe13c",
      "city": "Lucknow",
      "longitude": 80.94616599999999,
      "latitude": 26.8466937
    },
    {
      "_id": "59426b2dfea8d3eaf2abe13d",
      "city": "Kanpur",
      "longitude": 80.3318736,
      "latitude": 26.449923
    },
    {
      "_id": "59426b2dfea8d3eaf2abe13e",
      "city": "Nagpur",
      "longitude": 79.0881546,
      "latitude": 21.1458004
    },
    {
      "_id": "59426b2dfea8d3eaf2abe13f",
      "city": "Patna",
      "longitude": 85.1375645,
      "latitude": 25.5940947
    },
    {
      "_id": "59426b2dfea8d3eaf2abe140",
      "city": "Indore",
      "longitude": 75.8577258,
      "latitude": 22.7195687
    },
    {
      "_id": "59426b2dfea8d3eaf2abe142",
      "city": "Bhopal",
      "longitude": 77.412615,
      "latitude": 23.2599333
    },
    {
      "_id": "59426b2dfea8d3eaf2abe145",
      "city": "Firozabad",
      "longitude": 78.3957331,
      "latitude": 27.1591961
    },
    {
      "_id": "59426b2dfea8d3eaf2abe146",
      "city": "Ludhiana",
      "longitude": 75.8572758,
      "latitude": 30.900965
    },
    {
      "_id": "59426b2dfea8d3eaf2abe147",
      "city": "Rajkot",
      "longitude": 70.80215989999999,
      "latitude": 22.3038945
    },
    {
      "_id": "59426b2dfea8d3eaf2abe148",
      "city": "Agra",
      "longitude": 78.00807449999999,
      "latitude": 27.1766701
    },
    {
      "_id": "59426b2dfea8d3eaf2abe149",
      "city": "Siliguri",
      "longitude": 88.39528609999999,
      "latitude": 26.7271012
    },
    {
      "_id": "59426b2dfea8d3eaf2abe14b",
      "city": "Faridabad",
      "longitude": 77.3177894,
      "latitude": 28.4089123
    },
    {
      "_id": "59426b2dfea8d3eaf2abe14c",
      "city": "Patiala",
      "longitude": 76.3868797,
      "latitude": 30.3397809
    },
    {
      "_id": "59426b2dfea8d3eaf2abe14d",
      "city": "Meerut",
      "longitude": 77.7064137,
      "latitude": 28.9844618
    },
    {
      "_id": "59426b2dfea8d3eaf2abe14e",
      "city": "Kalyan",
      "longitude": 73.1575637,
      "latitude": 19.2830489
    },
    {
      "_id": "59426b2dfea8d3eaf2abe14f",
      "city": "Vasai",
      "longitude": 72.8397317,
      "latitude": 19.3919275
    },
    {
      "_id": "59426b2dfea8d3eaf2abe150",
      "city": "Varanasi",
      "longitude": 82.9739144,
      "latitude": 25.3176452
    },
    {
      "_id": "59426b2dfea8d3eaf2abe151",
      "city": "Srinagar",
      "longitude": 74.7972825,
      "latitude": 34.0836708
    },
    {
      "_id": "59426b2dfea8d3eaf2abe152",
      "city": "Dhanbad",
      "longitude": 86.43038589999999,
      "latitude": 23.7956531
    },
    {
      "_id": "59426b2dfea8d3eaf2abe153",
      "city": "Jodhpur",
      "longitude": 73.02430939999999,
      "latitude": 26.2389469
    },
    {
      "_id": "59426b2dfea8d3eaf2abe154",
      "city": "Amritsar",
      "longitude": 74.8722642,
      "latitude": 31.6339793
    },
    {
      "_id": "59426b2dfea8d3eaf2abe155",
      "city": "Raipur",
      "longitude": 81.62964130000002,
      "latitude": 21.2513844
    },
    {
      "_id": "59426b2dfea8d3eaf2abe156",
      "city": "Prayagraj",
      "longitude": 81.846311,
      "latitude": 25.4358011
    },
    {
      "_id": "59426b2dfea8d3eaf2abe157",
      "city": "Coimbatore",
      "longitude": 76.9558321,
      "latitude": 11.0168445
    },
    {
      "_id": "59426b2dfea8d3eaf2abe158",
      "city": "Jabalpur",
      "longitude": 79.9864071,
      "latitude": 23.181467
    },
    {
      "_id": "59426b2dfea8d3eaf2abe159",
      "city": "Gwalior",
      "longitude": 78.18283079999999,
      "latitude": 26.2182871
    },
    {
      "_id": "59426b2dfea8d3eaf2abe15a",
      "city": "Vijayawada",
      "longitude": 80.6480153,
      "latitude": 16.5061743
    },
    {
      "_id": "59426b2dfea8d3eaf2abe15b",
      "city": "Madurai",
      "longitude": 78.1197754,
      "latitude": 9.9252007
    },
    {
      "_id": "59426b2dfea8d3eaf2abe15c",
      "city": "Guwahati",
      "longitude": 91.7362365,
      "latitude": 26.1445169
    },
    {
      "_id": "59426b2dfea8d3eaf2abe15d",
      "city": "NAC Manimajra",
      "longitude": 76.8363404,
      "latitude": 30.70722
    },
    {
      "_id": "59426b2dfea8d3eaf2abe15e",
      "city": "Hubballi",
      "longitude": 75.1239547,
      "latitude": 15.3647083
    },
    {
      "_id": "59426b2dfea8d3eaf2abe15f",
      "city": "Amroha",
      "longitude": 78.4673426,
      "latitude": 28.9043537
    },
    {
      "_id": "59426b2dfea8d3eaf2abe160",
      "city": "Moradabad",
      "longitude": 78.7733286,
      "latitude": 28.8386481
    },
    {
      "_id": "59426b2dfea8d3eaf2abe161",
      "city": "Gurugram",
      "longitude": 77.0266383,
      "latitude": 28.4594965
    },
    {
      "_id": "59426b2dfea8d3eaf2abe162",
      "city": "Aligarh",
      "longitude": 78.0880129,
      "latitude": 27.8973944
    },
    {
      "_id": "59426b2dfea8d3eaf2abe163",
      "city": "Solapur",
      "longitude": 75.9063906,
      "latitude": 17.6599188
    },
    {
      "_id": "59426b2dfea8d3eaf2abe164",
      "city": "Ranchi",
      "longitude": 85.309562,
      "latitude": 23.3440997
    },
    {
      "_id": "59426b2dfea8d3eaf2abe165",
      "city": "Jalandhar",
      "longitude": 75.57618289999999,
      "latitude": 31.3260152
    },
    {
      "_id": "59426b2dfea8d3eaf2abe167",
      "city": "Bhubaneswar",
      "longitude": 85.8245398,
      "latitude": 20.2960587
    },
    {
      "_id": "59426b2dfea8d3eaf2abe168",
      "city": "Salem",
      "longitude": 78.1460142,
      "latitude": 11.664325
    },
    {
      "_id": "59426b2dfea8d3eaf2abe169",
      "city": "Warangal",
      "longitude": 79.59405439999999,
      "latitude": 17.9689008
    },
    {
      "_id": "59426b2dfea8d3eaf2abe16a",
      "city": "Mira Bhayandar",
      "longitude": 72.8543897,
      "latitude": 19.2952325
    },
    {
      "_id": "59426b2dfea8d3eaf2abe16c",
      "city": "Bhiwandi",
      "longitude": 73.0482912,
      "latitude": 19.2812547
    },
    {
      "_id": "59426b2dfea8d3eaf2abe16e",
      "city": "Guntur",
      "longitude": 80.4365402,
      "latitude": 16.3066525
    },
    {
      "_id": "59426b2dfea8d3eaf2abe16f",
      "city": "Amravati",
      "longitude": 77.7795513,
      "latitude": 20.9374238
    },
    {
      "_id": "59426b2dfea8d3eaf2abe170",
      "city": "Bikaner",
      "longitude": 73.3119159,
      "latitude": 28.0229348
    },
    {
      "_id": "59426b2dfea8d3eaf2abe171",
      "city": "Noida",
      "longitude": 77.3910265,
      "latitude": 28.5355161
    },
    {
      "_id": "59426b2dfea8d3eaf2abe172",
      "city": "Jamshedpur",
      "longitude": 86.2028754,
      "latitude": 22.8045665
    },
    {
      "_id": "59426b2dfea8d3eaf2abe173",
      "city": "Bhilai",
      "longitude": 81.3509416,
      "latitude": 21.1938475
    },
    {
      "_id": "59426b2dfea8d3eaf2abe174",
      "city": "Cuttack",
      "longitude": 85.8829895,
      "latitude": 20.462521
    },
    {
      "_id": "59426b2dfea8d3eaf2abe176",
      "city": "Udaipur",
      "longitude": 73.712479,
      "latitude": 24.585445
    },
    {
      "_id": "59426b2dfea8d3eaf2abe177",
      "city": "Bhavnagar",
      "longitude": 72.15193040000001,
      "latitude": 21.7644725
    },
    {
      "_id": "59426b2dfea8d3eaf2abe178",
      "city": "Dehradun",
      "longitude": 78.03219179999999,
      "latitude": 30.3164945
    },
    {
      "_id": "59426b2dfea8d3eaf2abe179",
      "city": "Asansol",
      "longitude": 86.9523954,
      "latitude": 23.6739452
    },
    {
      "_id": "59426b2dfea8d3eaf2abe17a",
      "city": "Nanded-Waghala",
      "longitude": 77.30372299999999,
      "latitude": 19.1428869
    },
    {
      "_id": "59426b2dfea8d3eaf2abe17b",
      "city": "Ajmer",
      "longitude": 74.6399163,
      "latitude": 26.4498954
    },
    {
      "_id": "59426b2dfea8d3eaf2abe17c",
      "city": "Jamnagar",
      "longitude": 70.05773,
      "latitude": 22.4707019
    },
    {
      "_id": "59426b2dfea8d3eaf2abe17d",
      "city": "Ujjain",
      "longitude": 75.7849097,
      "latitude": 23.1793013
    },
    {
      "_id": "59426b2dfea8d3eaf2abe17e",
      "city": "Sangli",
      "longitude": 74.5814773,
      "latitude": 16.8523973
    },
    {
      "_id": "59426b2dfea8d3eaf2abe17f",
      "city": "Loni",
      "longitude": 77.30085059999999,
      "latitude": 28.7316438
    },
    {
      "_id": "59426b2dfea8d3eaf2abe180",
      "city": "Jhansi",
      "longitude": 78.5684594,
      "latitude": 25.4484257
    },
    {
      "_id": "59426b2dfea8d3eaf2abe181",
      "city": "Puducherry",
      "longitude": 79.8083133,
      "latitude": 11.9415915
    },
    {
      "_id": "59426b2dfea8d3eaf2abe182",
      "city": "Nellore",
      "longitude": 79.98645599999999,
      "latitude": 14.4425987
    },
    {
      "_id": "59426b2dfea8d3eaf2abe183",
      "city": "Jammu",
      "longitude": 74.8570259,
      "latitude": 32.7266016
    },
    {
      "_id": "59426b2dfea8d3eaf2abe184",
      "city": "Belgaum",
      "longitude": 74.4976741,
      "latitude": 15.8496953
    },
    {
      "_id": "59426b2dfea8d3eaf2abe185",
      "city": "Rourkela",
      "longitude": 84.8535844,
      "latitude": 22.260423
    },
    {
      "_id": "59426b2dfea8d3eaf2abe186",
      "city": "Malegaon",
      "longitude": 74.5100291,
      "latitude": 20.5547497
    },
    {
      "_id": "59426b2dfea8d3eaf2abe187",
      "city": "Gaya",
      "longitude": 85.0002336,
      "latitude": 24.7913957
    },
    {
      "_id": "59426b2dfea8d3eaf2abe18a",
      "city": "Tirunelveli",
      "longitude": 77.7566523,
      "latitude": 8.713912600000002
    },
    {
      "_id": "59426b2dfea8d3eaf2abe18d",
      "city": "Akola",
      "longitude": 77.0081678,
      "latitude": 20.7002159
    },
    {
      "_id": "59426b2dfea8d3eaf2abe18e",
      "city": "Kurnool",
      "longitude": 78.0372792,
      "latitude": 15.8281257
    },
    {
      "_id": "59426b2dfea8d3eaf2abe18f",
      "city": "Bokaro Steel City",
      "longitude": 86.15111200000001,
      "latitude": 23.6692956
    },
    {
      "_id": "59426b2dfea8d3eaf2abe192",
      "city": "Agartala",
      "longitude": 91.2867777,
      "latitude": 23.831457
    },
    {
      "_id": "59426b2dfea8d3eaf2abe193",
      "city": "Bhagalpur",
      "longitude": 86.9824288,
      "latitude": 25.3478004
    },
    {
      "_id": "59426b2dfea8d3eaf2abe194",
      "city": "Latur",
      "longitude": 76.5603828,
      "latitude": 18.4087934
    },
    {
      "_id": "59426b2dfea8d3eaf2abe195",
      "city": "Dhule",
      "longitude": 74.7748979,
      "latitude": 20.9042201
    },
    {
      "_id": "59426b2dfea8d3eaf2abe196",
      "city": "Korba",
      "longitude": 82.75005949999999,
      "latitude": 22.3594501
    },
    {
      "_id": "59426b2dfea8d3eaf2abe197",
      "city": "Bhilwara",
      "longitude": 74.586953,
      "latitude": 25.321377
    },
    {
      "_id": "59426b2dfea8d3eaf2abe199",
      "city": "Mysuru",
      "longitude": 76.6393805,
      "latitude": 12.2958104
    },
    {
      "_id": "59426b2dfea8d3eaf2abe19a",
      "city": "Ahmednagar",
      "longitude": 74.7495916,
      "latitude": 19.0952075
    },
    {
      "_id": "59426b2dfea8d3eaf2abe19b",
      "city": "Kollam",
      "longitude": 76.6141396,
      "latitude": 8.8932118
    },
    {
      "_id": "59426b2dfea8d3eaf2abe19c",
      "city": "Raghunathganj",
      "longitude": 88.05586799999999,
      "latitude": 24.4583661
    },
    {
      "_id": "59426b2dfea8d3eaf2abe19d",
      "city": "Bilaspur",
      "longitude": 82.1391412,
      "latitude": 22.0796251
    },
    {
      "_id": "59426b2dfea8d3eaf2abe19e",
      "city": "Shahjahanpur",
      "longitude": 79.9122455,
      "latitude": 27.883744
    },
    {
      "_id": "59426b2dfea8d3eaf2abe1a0",
      "city": "Alwar",
      "longitude": 76.6345735,
      "latitude": 27.5529907
    },
    {
      "_id": "59426b2dfea8d3eaf2abe1a1",
      "city": "Kakinada",
      "longitude": 82.2474648,
      "latitude": 16.9890648
    },
    {
      "_id": "59426b2dfea8d3eaf2abe1a2",
      "city": "Muzaffarpur",
      "longitude": 85.3647201,
      "latitude": 26.1208876
    },
    {
      "_id": "59426b2dfea8d3eaf2abe1a3",
      "city": "Nizamabad",
      "longitude": 78.09408669999999,
      "latitude": 18.6725047
    },
    {
      "_id": "59426b2dfea8d3eaf2abe1a4",
      "city": "Sagar",
      "longitude": 78.7378068,
      "latitude": 23.838805
    },
    {
      "_id": "59426b2dfea8d3eaf2abe1a5",
      "city": "Tumakuru",
      "longitude": 77.1139984,
      "latitude": 13.3391677
    },
    {
      "_id": "59426b2dfea8d3eaf2abe1a6",
      "city": "Hisar",
      "longitude": 75.7216527,
      "latitude": 29.1491875
    },
    {
      "_id": "59426b2dfea8d3eaf2abe1a7",
      "city": "Rohtak",
      "longitude": 76.606611,
      "latitude": 28.8955152
    },
    {
      "_id": "59426b2dfea8d3eaf2abe1a8",
      "city": "Panipat",
      "longitude": 76.9635023,
      "latitude": 29.3909464
    },
    {
      "_id": "59426b2dfea8d3eaf2abe1a9",
      "city": "Darbhanga",
      "longitude": 85.89600399999999,
      "latitude": 26.111868
    },
    {
      "_id": "59426b2dfea8d3eaf2abe1aa",
      "city": "Kharagpur",
      "longitude": 87.2319753,
      "latitude": 22.34601
    },
    {
      "_id": "59426b2dfea8d3eaf2abe1ab",
      "city": "Aizawl",
      "longitude": 92.7176389,
      "latitude": 23.727107
    },
    {
      "_id": "59426b2dfea8d3eaf2abe1ac",
      "city": "Ichalkaranji",
      "longitude": 74.4560807,
      "latitude": 16.7090008
    },
    {
      "_id": "59426b2dfea8d3eaf2abe1ae",
      "city": "Karnal",
      "longitude": 76.9904825,
      "latitude": 29.6856929
    },
    {
      "_id": "59426b2dfea8d3eaf2abe1b0",
      "city": "Rampur",
      "longitude": 79.0249516,
      "latitude": 28.7893041
    },
    {
      "_id": "59426b2dfea8d3eaf2abe1b2",
      "city": "Modinagar",
      "longitude": 77.5779592,
      "latitude": 28.8316307
    },
    {
      "_id": "59426b2dfea8d3eaf2abe1b3",
      "city": "Durg",
      "longitude": 81.2849169,
      "latitude": 21.1904494
    },
    {
      "_id": "59426b2dfea8d3eaf2abe1b4",
      "city": "Shillong",
      "longitude": 91.8932535,
      "latitude": 25.5787726
    },
    {
      "_id": "59426b2dfea8d3eaf2abe1b5",
      "city": "Imphal",
      "longitude": 93.9368439,
      "latitude": 24.8170111
    },
    {
      "_id": "59426b2dfea8d3eaf2abe1b6",
      "city": "Hapur",
      "longitude": 77.7758825,
      "latitude": 28.73057979999999
    },
    {
      "_id": "59426b2dfea8d3eaf2abe1b7",
      "city": "Ranipet",
      "longitude": 79.33346370000001,
      "latitude": 12.9320625
    },
    {
      "_id": "59426b2dfea8d3eaf2abe1b8",
      "city": "Anantapur",
      "longitude": 77.6005911,
      "latitude": 14.6818877
    },
    {
      "_id": "59426b2dfea8d3eaf2abe1b9",
      "city": "Arrah",
      "longitude": 84.6603307,
      "latitude": 25.5560443
    },
    {
      "_id": "59426b2dfea8d3eaf2abe1bb",
      "city": "Parbhani",
      "longitude": 76.77666500000001,
      "latitude": 19.2609958
    },
    {
      "_id": "59426b2dfea8d3eaf2abe1bc",
      "city": "Etawah",
      "longitude": 79.0046898,
      "latitude": 26.8117116
    },
    {
      "_id": "59426b2dfea8d3eaf2abe1bd",
      "city": "Bharatpur",
      "longitude": 77.489515,
      "latitude": 27.216981
    },
    {
      "_id": "59426b2dfea8d3eaf2abe1be",
      "city": "Ratlam",
      "longitude": 75.0376325,
      "latitude": 23.3341696
    },
    {
      "_id": "59426b2dfea8d3eaf2abe1bf",
      "city": "Begusarai",
      "longitude": 86.1293792,
      "latitude": 25.416675
    },
    {
      "_id": "59426b2dfea8d3eaf2abe1c0",
      "city": "New Delhi",
      "longitude": 77.2090212,
      "latitude": 28.6139391
    },
    {
      "_id": "59426b2dfea8d3eaf2abe1c3",
      "city": "Ramagundam",
      "longitude": 79.5133701,
      "latitude": 18.7518652
    },
    {
      "_id": "59426b2dfea8d3eaf2abe1c4",
      "city": "Pali",
      "longitude": 73.3234478,
      "latitude": 25.7710893
    },
    {
      "_id": "59426b2dfea8d3eaf2abe1c5",
      "city": "Satna",
      "longitude": 80.8322428,
      "latitude": 24.6005075
    },
    {
      "_id": "59426b2dfea8d3eaf2abe1c6",
      "city": "Vizianagaram",
      "longitude": 83.39555059999999,
      "latitude": 18.1066576
    },
    {
      "_id": "59426b2dfea8d3eaf2abe1c7",
      "city": "Katihar",
      "longitude": 87.57186089999999,
      "latitude": 25.552048
    },
    {
      "_id": "59426b2dfea8d3eaf2abe1ca",
      "city": "Nagercoil",
      "longitude": 77.4118996,
      "latitude": 8.183285699999999
    },
    {
      "_id": "59426b2dfea8d3eaf2abe1cc",
      "city": "Katni",
      "longitude": 80.4072255,
      "latitude": 23.8308453
    },
    {
      "_id": "59426b2dfea8d3eaf2abe1cd",
      "city": "Naihati",
      "longitude": 88.42203239999999,
      "latitude": 22.8928724
    },
    {
      "_id": "59426b2dfea8d3eaf2abe1ce",
      "city": "Sambhal",
      "longitude": 78.5717631,
      "latitude": 28.5903614
    },
    {
      "_id": "59426b2dfea8d3eaf2abe1cf",
      "city": "Nadiad",
      "longitude": 72.86336349999999,
      "latitude": 22.6915853
    },
    {
      "_id": "59426b2dfea8d3eaf2abe1d0",
      "city": "Yamuna Nagar",
      "longitude": 77.2673901,
      "latitude": 30.1290485
    },
    {
      "_id": "59426b2dfea8d3eaf2abe1d1",
      "city": "Eluru",
      "longitude": 81.0952431,
      "latitude": 16.7106604
    },
    {
      "_id": "59426b2dfea8d3eaf2abe1d2",
      "city": "Malda",
      "longitude": 88.14109669999999,
      "latitude": 25.0108408
    },
    {
      "_id": "59426b2dfea8d3eaf2abe1d3",
      "city": "Munger",
      "longitude": 86.47352509999999,
      "latitude": 25.3747561
    },
    {
      "_id": "59426b2dfea8d3eaf2abe1d4",
      "city": "Panchkula",
      "longitude": 76.860565,
      "latitude": 30.6942091
    },
    {
      "_id": "59426b2dfea8d3eaf2abe1d5",
      "city": "Raichur",
      "latitude": 16.2120031,
      "longitude": 77.3439283
    },
    {
      "_id": "59426b2dfea8d3eaf2abe1d6",
      "city": "Panvel",
      "longitude": 73.1175162,
      "latitude": 18.9894007
    },
    {
      "_id": "59426b2dfea8d3eaf2abe1d7",
      "city": "Deoghar",
      "longitude": 86.6913222,
      "latitude": 24.4763201
    },
    {
      "_id": "59426b2dfea8d3eaf2abe1d8",
      "city": "Ongole",
      "longitude": 80.049922,
      "latitude": 15.5057232
    },
    {
      "_id": "59426b2dfea8d3eaf2abe1d9",
      "city": "Nandyal",
      "longitude": 78.4830934,
      "latitude": 15.4785694
    },
    {
      "_id": "59426b2dfea8d3eaf2abe1da",
      "city": "Morena",
      "longitude": 77.99099489999999,
      "latitude": 26.4933562
    },
    {
      "_id": "59426b2dfea8d3eaf2abe1db",
      "city": "Bhiwani",
      "longitude": 75.9927652,
      "latitude": 28.7751693
    },
    {
      "_id": "59426b2dfea8d3eaf2abe1dc",
      "city": "Porbandar",
      "longitude": 69.6292654,
      "latitude": 21.6417069
    },
    {
      "_id": "59426b2dfea8d3eaf2abe1dd",
      "city": "Palakkad",
      "longitude": 76.6547932,
      "latitude": 10.7867303
    },
    {
      "_id": "59426b2dfea8d3eaf2abe1de",
      "city": "Anand",
      "longitude": 72.928871,
      "latitude": 22.5645175
    },
    {
      "_id": "59426b2dfea8d3eaf2abe1df",
      "city": "Purnea",
      "longitude": 87.4752551,
      "latitude": 25.7771391
    },
    {
      "_id": "59426b2dfea8d3eaf2abe1e1",
      "city": "Barmer",
      "longitude": 71.4180622,
      "latitude": 25.7531537
    },
    {
      "_id": "59426b2dfea8d3eaf2abe1e2",
      "city": "Morbi",
      "longitude": 70.82361949999999,
      "latitude": 22.8119895
    },
    {
      "_id": "59426b2dfea8d3eaf2abe1e3",
      "city": "Orai",
      "longitude": 79.4478858,
      "latitude": 26.00864
    },
    {
      "_id": "59426b2dfea8d3eaf2abe1e4",
      "city": "Bahraich",
      "longitude": 81.5980246,
      "latitude": 27.5708377
    },
    {
      "_id": "59426b2dfea8d3eaf2abe1e5",
      "city": "Singrauli",
      "longitude": 82.66454689999999,
      "latitude": 24.1992101
    },
    {
      "_id": "59426b2dfea8d3eaf2abe1e6",
      "city": "Khammam",
      "longitude": 80.1514447,
      "latitude": 17.2472528
    },
    {
      "_id": "59426b2dfea8d3eaf2abe1e7",
      "city": "Mehsana",
      "longitude": 72.36932519999999,
      "latitude": 23.5879607
    },
    {
      "_id": "59426b2dfea8d3eaf2abe1e8",
      "city": "Silchar",
      "longitude": 92.7789054,
      "latitude": 24.8332708
    },
    {
      "_id": "59426b2dfea8d3eaf2abe1e9",
      "city": "Sambalpur",
      "longitude": 83.9811665,
      "latitude": 21.4668716
    },
    {
      "_id": "59426b2dfea8d3eaf2abe1ea",
      "city": "Rewa",
      "longitude": 81.30418,
      "latitude": 24.5372927
    },
    {
      "_id": "59426b2dfea8d3eaf2abe1eb",
      "city": "Unnao",
      "longitude": 80.4878195,
      "latitude": 26.5393449
    },
    {
      "_id": "59426b2dfea8d3eaf2abe1ec",
      "city": "Hooghly",
      "longitude": 88.3919026,
      "latitude": 22.8858771
    },
    {
      "_id": "59426b2dfea8d3eaf2abe1ed",
      "city": "Sikar",
      "longitude": 75.139911,
      "latitude": 27.6094
    },
    {
      "_id": "59426b2dfea8d3eaf2abe1ef",
      "city": "Phusro",
      "longitude": 86.0020693,
      "latitude": 23.7622641
    },
    {
      "_id": "59426b2dfea8d3eaf2abe1f0",
      "city": "Adityapur",
      "longitude": 86.1661178,
      "latitude": 22.7907697
    },
    {
      "_id": "59426b2dfea8d3eaf2abe1f1",
      "city": "Alappuzha",
      "longitude": 76.3388484,
      "latitude": 9.498066699999999
    },
    {
      "_id": "59426b2dfea8d3eaf2abe1f2",
      "city": "Bahadurgarh",
      "longitude": 76.9239727,
      "latitude": 28.6924464
    },
    {
      "_id": "59426b2dfea8d3eaf2abe1f3",
      "city": "Machilipatnam",
      "longitude": 81.1361543,
      "latitude": 16.1905457
    },
    {
      "_id": "59426b2dfea8d3eaf2abe1f4",
      "city": "Raebareli",
      "longitude": 81.2408689,
      "latitude": 26.2345298
    },
    {
      "_id": "59426b2dfea8d3eaf2abe1f5",
      "city": "Jalpaiguri",
      "longitude": 88.7205256,
      "latitude": 26.5434772
    },
    {
      "_id": "59426b2dfea8d3eaf2abe1f6",
      "city": "Bharuch",
      "longitude": 72.9958748,
      "latitude": 21.7051358
    },
    {
      "_id": "59426b2dfea8d3eaf2abe1f7",
      "city": "Pathankot",
      "longitude": 75.64211209999999,
      "latitude": 32.2643375
    },
    {
      "_id": "59426b2dfea8d3eaf2abe1f8",
      "city": "Hoshiarpur",
      "longitude": 75.911483,
      "latitude": 31.5143178
    },
    {
      "_id": "59426b2dfea8d3eaf2abe1f9",
      "city": "Baramulla",
      "longitude": 74.35874729999999,
      "latitude": 34.1595145
    },
    {
      "_id": "59426b2dfea8d3eaf2abe1fa",
      "city": "Adoni",
      "longitude": 77.2728368,
      "latitude": 15.6322227
    },
    {
      "_id": "59426b2dfea8d3eaf2abe1fb",
      "city": "Jind",
      "longitude": 76.30583279999999,
      "latitude": 29.3211153
    },
    {
      "_id": "59426b2dfea8d3eaf2abe1fc",
      "city": "Tonk",
      "longitude": 75.7894716,
      "latitude": 26.1620402
    },
    {
      "_id": "59426b2dfea8d3eaf2abe1fd",
      "city": "Kanchipuram",
      "longitude": 79.7036402,
      "latitude": 12.8341735
    },
    {
      "_id": "59426b2dfea8d3eaf2abe1fe",
      "city": "Vapi",
      "longitude": 72.9106202,
      "latitude": 20.3893155
    },
    {
      "_id": "59426b2dfea8d3eaf2abe1ff",
      "city": "Sirsa",
      "longitude": 75.0177029,
      "latitude": 29.53359309999999
    },
    {
      "_id": "59426b2dfea8d3eaf2abe200",
      "city": "Navsari",
      "longitude": 72.95203479999999,
      "latitude": 20.9467019
    },
    {
      "_id": "59426b2dfea8d3eaf2abe202",
      "city": "Puri",
      "longitude": 85.8314655,
      "latitude": 19.8133822
    },
    {
      "_id": "59426b2dfea8d3eaf2abe203",
      "city": "Robertsonpet",
      "longitude": 78.26986219999999,
      "latitude": 12.9551189
    },
    {
      "_id": "59426b2dfea8d3eaf2abe204",
      "city": "Erode",
      "longitude": 77.7171642,
      "latitude": 11.3410364
    },
    {
      "_id": "59426b2dfea8d3eaf2abe205",
      "city": "Tenali",
      "longitude": 80.64933959999999,
      "latitude": 16.2395313
    },
    {
      "_id": "59426b2dfea8d3eaf2abe206",
      "city": "Batala",
      "longitude": 75.2070644,
      "latitude": 31.8183238
    },
    {
      "_id": "59426b2dfea8d3eaf2abe207",
      "city": "Vidisha",
      "longitude": 77.8081363,
      "latitude": 23.5251102
    },
    {
      "_id": "59426b2dfea8d3eaf2abe209",
      "city": "Vellore",
      "longitude": 79.13249859999999,
      "latitude": 12.9165167
    },
    {
      "_id": "59426b2dfea8d3eaf2abe20a",
      "city": "Saharsa",
      "longitude": 86.6006249,
      "latitude": 25.8834961
    },
    {
      "_id": "59426b2dfea8d3eaf2abe20b",
      "city": "Thanesar",
      "longitude": 76.8197522,
      "latitude": 29.9696148
    },
    {
      "_id": "59426b2dfea8d3eaf2abe20c",
      "city": "Chittoor",
      "longitude": 79.1003289,
      "latitude": 13.217176
    },
    {
      "_id": "59426b2dfea8d3eaf2abe20d",
      "city": "Veraval",
      "longitude": 70.3628516,
      "latitude": 20.9158979
    },
    {
      "_id": "59426b2dfea8d3eaf2abe20e",
      "city": "Lakhimpur",
      "longitude": 80.7787163,
      "latitude": 27.9462395
    },
    {
      "_id": "59426b2dfea8d3eaf2abe20f",
      "city": "Sitapur",
      "longitude": 80.66635600000001,
      "latitude": 27.5839037
    },
    {
      "_id": "59426b2dfea8d3eaf2abe210",
      "city": "Hindupur",
      "longitude": 77.4988753,
      "latitude": 13.8185378
    },
    {
      "_id": "59426b2dfea8d3eaf2abe212",
      "city": "Balurghat",
      "longitude": 88.7830612,
      "latitude": 25.2372834
    },
    {
      "_id": "59426b2dfea8d3eaf2abe213",
      "city": "Ganj Basoda",
      "longitude": 77.92630299999999,
      "latitude": 23.8514645
    },
    {
      "_id": "59426b2dfea8d3eaf2abe214",
      "city": "Moga",
      "longitude": 75.17344709999999,
      "latitude": 30.8230114
    },
    {
      "_id": "59426b2dfea8d3eaf2abe215",
      "city": "Proddatur",
      "longitude": 78.5531577,
      "latitude": 14.7491864
    },
    {
      "_id": "59426b2dfea8d3eaf2abe216",
      "city": "Srinagar",
      "longitude": 78.7986181,
      "latitude": 30.2246751
    },
    {
      "_id": "59426b2dfea8d3eaf2abe218",
      "city": "Habra",
      "longitude": 88.6639591,
      "latitude": 22.8488542
    },
    {
      "_id": "59426b2dfea8d3eaf2abe219",
      "city": "Sasaram",
      "longitude": 84.0314295,
      "latitude": 24.949036
    },
    {
      "_id": "59426b2dfea8d3eaf2abe21a",
      "city": "Hajipur",
      "longitude": 85.21459070000002,
      "latitude": 25.6858392
    },
    {
      "_id": "59426b2dfea8d3eaf2abe21b",
      "city": "Bhuj",
      "longitude": 69.6669324,
      "latitude": 23.2419997
    },
    {
      "_id": "59426b2dfea8d3eaf2abe21c",
      "city": "Shivpuri",
      "longitude": 77.665066,
      "latitude": 25.4357869
    },
    {
      "_id": "59426b2dfea8d3eaf2abe21d",
      "city": "Ranaghat",
      "longitude": 88.5639352,
      "latitude": 23.17405
    },
    {
      "_id": "59426b2dfea8d3eaf2abe21e",
      "city": "Shimla",
      "longitude": 77.17340329999999,
      "latitude": 31.1048145
    },
    {
      "_id": "59426b2dfea8d3eaf2abe220",
      "city": "Kaithal",
      "longitude": 76.39845369999999,
      "latitude": 29.7856734
    },
    {
      "_id": "59426b2dfea8d3eaf2abe221",
      "city": "Rajnandgaon",
      "longitude": 81.0302222,
      "latitude": 21.0971034
    },
    {
      "_id": "59426b2dfea8d3eaf2abe222",
      "city": "Godhra",
      "longitude": 73.6142795,
      "latitude": 22.7788044
    },
    {
      "_id": "59426b2dfea8d3eaf2abe223",
      "city": "Hazaribagh",
      "longitude": 85.36910680000001,
      "latitude": 23.9966213
    },
    {
      "_id": "59426b2dfea8d3eaf2abe224",
      "city": "Bhimavaram",
      "longitude": 81.521241,
      "latitude": 16.544893
    },
    {
      "_id": "59426b2dfea8d3eaf2abe225",
      "city": "Mandsaur",
      "longitude": 75.06929520000001,
      "latitude": 24.076836
    },
    {
      "_id": "59426b2dfea8d3eaf2abe226",
      "city": "Dibrugarh",
      "longitude": 94.9119621,
      "latitude": 27.4728327
    },
    {
      "_id": "59426b2dfea8d3eaf2abe227",
      "city": "Mandya",
      "longitude": 76.9009191,
      "latitude": 12.5221567
    },
    {
      "_id": "59426b2dfea8d3eaf2abe228",
      "city": "Dehri-on-sone",
      "longitude": 84.1909841,
      "latitude": 24.9277351
    },
    {
      "_id": "59426b2dfea8d3eaf2abe229",
      "city": "Madanapalle",
      "longitude": 78.50100069999999,
      "latitude": 13.5560496
    },
    {
      "_id": "59426b2dfea8d3eaf2abe22a",
      "city": "Malerkotla",
      "longitude": 75.8882508,
      "latitude": 30.5232076
    },
    {
      "_id": "59426b2dfea8d3eaf2abe22b",
      "city": "Lalitpur",
      "longitude": 78.41202059999999,
      "latitude": 24.6878597
    },
    {
      "_id": "59426b2dfea8d3eaf2abe22c",
      "city": "Bettiah",
      "longitude": 84.5169757,
      "latitude": 26.8028048
    },
    {
      "_id": "59426b2dfea8d3eaf2abe22d",
      "city": "Pollachi",
      "longitude": 77.0106693,
      "latitude": 10.6572737
    },
    {
      "_id": "59426b2dfea8d3eaf2abe22e",
      "city": "Khanna",
      "longitude": 76.2169907,
      "latitude": 30.70707689999999
    },
    {
      "_id": "59426b2dfea8d3eaf2abe22f",
      "city": "Kolar",
      "longitude": 78.12909859999999,
      "latitude": 13.1362143
    },
    {
      "_id": "59426b2dfea8d3eaf2abe230",
      "city": "Neemuch",
      "longitude": 74.8624092,
      "latitude": 24.4763852
    },
    {
      "_id": "59426b2dfea8d3eaf2abe231",
      "city": "Palanpur",
      "longitude": 72.43309889999999,
      "latitude": 24.174051
    },
    {
      "_id": "59426b2dfea8d3eaf2abe232",
      "city": "Palwal",
      "longitude": 77.3320262,
      "latitude": 28.1487362
    },
    {
      "_id": "59426b2dfea8d3eaf2abe234",
      "city": "Guntakal",
      "longitude": 77.37362379999999,
      "latitude": 15.1674091
    },
    {
      "_id": "59426b2dfea8d3eaf2abe235",
      "city": "Nabadwip",
      "longitude": 88.3676393,
      "latitude": 23.4036446
    },
    {
      "_id": "59426b2dfea8d3eaf2abe236",
      "city": "Udupi",
      "longitude": 74.7421427,
      "latitude": 13.3408807
    },
    {
      "_id": "59426b2dfea8d3eaf2abe237",
      "city": "Jagdalpur",
      "longitude": 82.00801400000002,
      "latitude": 19.0740973
    },
    {
      "_id": "59426b2dfea8d3eaf2abe238",
      "city": "Motihari",
      "longitude": 84.9040337,
      "latitude": 26.6438482
    },
    {
      "_id": "59426b2dfea8d3eaf2abe239",
      "city": "Pilibhit",
      "longitude": 79.8128649,
      "latitude": 28.6207939
    },
    {
      "_id": "59426b2dfea8d3eaf2abe23a",
      "city": "Dimapur",
      "longitude": 93.75366629999999,
      "latitude": 25.8629885
    },
    {
      "_id": "59426b2dfea8d3eaf2abe23b",
      "city": "Sahibzada Ajit Singh Nagar",
      "longitude": 76.71787259999999,
      "latitude": 30.7046486
    },
    {
      "_id": "59426b2dfea8d3eaf2abe23d",
      "city": "Dharmavaram",
      "longitude": 77.71261890000001,
      "latitude": 14.4137447
    },
    {
      "_id": "59426b2dfea8d3eaf2abe23e",
      "city": "Kashipur",
      "longitude": 78.9618845,
      "latitude": 29.2104232
    },
    {
      "_id": "59426b2dfea8d3eaf2abe23f",
      "city": "Sivakasi",
      "longitude": 77.80241699999999,
      "latitude": 9.4532852
    },
    {
      "_id": "59426b2dfea8d3eaf2abe240",
      "city": "Darjeeling",
      "longitude": 88.2626751,
      "latitude": 27.0360066
    },
    {
      "_id": "59426b2dfea8d3eaf2abe241",
      "city": "Chickmagaluru",
      "longitude": 75.7754018,
      "latitude": 13.315258
    },
    {
      "_id": "59426b2dfea8d3eaf2abe242",
      "city": "Gudivada",
      "longitude": 80.9926327,
      "latitude": 16.4410255
    },
    {
      "_id": "59426b2dfea8d3eaf2abe243",
      "city": "Balasore",
      "longitude": 86.9246005,
      "latitude": 21.4869337
    },
    {
      "_id": "59426b2dfea8d3eaf2abe244",
      "city": "Mancherial",
      "longitude": 79.4591378,
      "latitude": 18.8755953
    },
    {
      "_id": "59426b2dfea8d3eaf2abe245",
      "city": "Srikakulam",
      "longitude": 83.8937761,
      "latitude": 18.294846
    },
    {
      "_id": "59426b2dfea8d3eaf2abe246",
      "city": "Adilabad",
      "longitude": 78.5320107,
      "latitude": 19.6640624
    },
    {
      "_id": "59426b2dfea8d3eaf2abe247",
      "city": "Yavatmal",
      "longitude": 78.1204073,
      "latitude": 20.3887937
    },
    {
      "_id": "59426b2dfea8d3eaf2abe248",
      "city": "Barnala",
      "longitude": 75.5467979,
      "latitude": 30.3819446
    },
    {
      "_id": "59426b2dfea8d3eaf2abe249",
      "city": "Nagaon",
      "longitude": 92.6840426,
      "latitude": 26.3463713
    },
    {
      "_id": "59426b2dfea8d3eaf2abe24a",
      "city": "Narasaraopet",
      "longitude": 80.0479039,
      "latitude": 16.2353506
    },
    {
      "_id": "59426b2dfea8d3eaf2abe24b",
      "city": "Raigarh",
      "longitude": 83.39496319999999,
      "latitude": 21.8974003
    },
    {
      "_id": "59426b2dfea8d3eaf2abe24c",
      "city": "Roorkee",
      "longitude": 77.8880002,
      "latitude": 29.8542626
    },
    {
      "_id": "59426b2dfea8d3eaf2abe24d",
      "city": "Valsad",
      "longitude": 72.9342451,
      "latitude": 20.5992349
    },
    {
      "_id": "59426b2dfea8d3eaf2abe24e",
      "city": "Ambikapur",
      "longitude": 83.1817856,
      "latitude": 23.1354921
    },
    {
      "_id": "59426b2dfea8d3eaf2abe24f",
      "city": "Giridih",
      "longitude": 86.2996368,
      "latitude": 24.19135
    },
    {
      "_id": "59426b2dfea8d3eaf2abe250",
      "city": "Chandausi",
      "longitude": 78.7796105,
      "latitude": 28.4480507
    },
    {
      "_id": "59426b2dfea8d3eaf2abe251",
      "city": "Purulia",
      "longitude": 86.365208,
      "latitude": 23.3320779
    },
    {
      "_id": "59426b2dfea8d3eaf2abe252",
      "city": "Patan",
      "longitude": 72.1266255,
      "latitude": 23.8493246
    },
    {
      "_id": "59426b2dfea8d3eaf2abe253",
      "city": "Bagaha",
      "longitude": 84.0722375,
      "latitude": 27.1221959
    },
    {
      "_id": "59426b2dfea8d3eaf2abe255",
      "city": "Achalpur",
      "longitude": 77.5086754,
      "latitude": 21.257584
    },
    {
      "_id": "59426b2dfea8d3eaf2abe256",
      "city": "Osmanabad",
      "longitude": 76.0419409,
      "latitude": 18.1860659
    },
    {
      "_id": "59426b2dfea8d3eaf2abe257",
      "city": "Deesa",
      "longitude": 72.1906721,
      "latitude": 24.2585031
    },
    {
      "_id": "59426b2dfea8d3eaf2abe258",
      "city": "Nandurbar",
      "longitude": 74.12399599999999,
      "latitude": 21.7468548
    },
    {
      "_id": "59426b2dfea8d3eaf2abe259",
      "city": "Azamgarh",
      "longitude": 83.1859458,
      "latitude": 26.0737044
    },
    {
      "_id": "59426b2dfea8d3eaf2abe25a",
      "city": "Ramgarh",
      "longitude": 85.56121,
      "latitude": 23.6523678
    },
    {
      "_id": "59426b2dfea8d3eaf2abe25b",
      "city": "Ferozepur",
      "longitude": 74.6224755,
      "latitude": 30.9331348
    },
    {
      "_id": "59426b2dfea8d3eaf2abe25c",
      "city": "Baripada",
      "longitude": 86.7516942,
      "latitude": 21.9322338
    },
    {
      "_id": "59426b2dfea8d3eaf2abe25d",
      "city": "Karwar",
      "longitude": 74.1416127,
      "latitude": 14.8184812
    },
    {
      "_id": "59426b2dfea8d3eaf2abe25e",
      "city": "Pudukkottai",
      "longitude": 78.8208454,
      "latitude": 10.379663
    },
    {
      "_id": "59426b2dfea8d3eaf2abe25f",
      "city": "Anantnag",
      "longitude": 75.14870069999999,
      "latitude": 33.7311255
    },
    {
      "_id": "59426b2dfea8d3eaf2abe260",
      "city": "Tadipatri",
      "longitude": 78.0092703,
      "latitude": 14.9070274
    },
    {
      "_id": "59426b2dfea8d3eaf2abe261",
      "city": "Satara",
      "longitude": 74.018261,
      "latitude": 17.6804639
    },
    {
      "_id": "59426b2dfea8d3eaf2abe262",
      "city": "Siwan",
      "longitude": 84.35665929999999,
      "latitude": 26.2196205
    },
    {
      "_id": "59426b2dfea8d3eaf2abe263",
      "city": "Bhadrak",
      "longitude": 86.4958396,
      "latitude": 21.0582737
    },
    {
      "_id": "59426b2dfea8d3eaf2abe264",
      "city": "Suryapet",
      "longitude": 79.6333674,
      "latitude": 17.1353148
    },
    {
      "_id": "59426b2dfea8d3eaf2abe265",
      "city": "Kishanganj",
      "longitude": 87.93838219999999,
      "latitude": 26.0917422
    },
    {
      "_id": "59426b2dfea8d3eaf2abe266",
      "city": "Rajampet",
      "longitude": 79.15637180000002,
      "latitude": 14.1965314
    },
    {
      "_id": "59426b2dfea8d3eaf2abe267",
      "city": "Rajapalayam",
      "longitude": 77.5275463,
      "latitude": 9.4653377
    },
    {
      "_id": "59426b2dfea8d3eaf2abe268",
      "city": "Wardha",
      "longitude": 78.60219459999999,
      "latitude": 20.745319
    },
    {
      "_id": "59426b2dfea8d3eaf2abe269",
      "city": "Ranebennur",
      "longitude": 75.63826569999999,
      "latitude": 14.6113428
    },
    {
      "_id": "59426b2dfea8d3eaf2abe26a",
      "city": "Amreli",
      "longitude": 71.2220832,
      "latitude": 21.6031774
    },
    {
      "_id": "59426b2dfea8d3eaf2abe26b",
      "city": "Jamalpur",
      "longitude": 86.4906091,
      "latitude": 25.312717
    },
    {
      "_id": "59426b2dfea8d3eaf2abe26c",
      "city": "Neyveli T.S",
      "longitude": 79.49850909999999,
      "latitude": 11.6113629
    },
    {
      "_id": "59426b2dfea8d3eaf2abe26d",
      "city": "Mormugao",
      "longitude": 73.8154394,
      "latitude": 15.3874352
    },
    {
      "_id": "59426b2dfea8d3eaf2abe26e",
      "city": "Udgir",
      "longitude": 77.11260089999999,
      "latitude": 18.3942882
    },
    {
      "_id": "59426b2dfea8d3eaf2abe26f",
      "city": "Tadepalligudem",
      "longitude": 81.521241,
      "latitude": 16.8138415
    },
    {
      "_id": "59426b2dfea8d3eaf2abe270",
      "city": "Nagapattinam",
      "longitude": 79.8423888,
      "latitude": 10.7656082
    },
    {
      "_id": "59426b2dfea8d3eaf2abe271",
      "city": "Buxar",
      "longitude": 83.9777482,
      "latitude": 25.5647103
    },
    {
      "_id": "59426b2dfea8d3eaf2abe272",
      "city": "Aurangabad",
      "longitude": 75.3433139,
      "latitude": 19.8761653
    },
    {
      "_id": "59426b2dfea8d3eaf2abe273",
      "city": "Jehanabad",
      "longitude": 84.981754,
      "latitude": 25.1515827
    },
    {
      "_id": "59426b2dfea8d3eaf2abe274",
      "city": "Phagwara",
      "longitude": 75.7708013,
      "latitude": 31.22401979999999
    },
    {
      "_id": "59426b2dfea8d3eaf2abe275",
      "city": "Khair",
      "longitude": 77.84244559999999,
      "latitude": 27.9391956
    },
    {
      "_id": "59426b2dfea8d3eaf2abe276",
      "city": "Sawai Madhopur",
      "longitude": 76.3521514,
      "latitude": 26.0377772
    },
    {
      "_id": "59426b2dfea8d3eaf2abe277",
      "city": "Kapurthala",
      "longitude": 75.3936808,
      "latitude": 31.3714801
    },
    {
      "_id": "59426b2dfea8d3eaf2abe278",
      "city": "Chilakaluripet",
      "longitude": 80.1656205,
      "latitude": 16.0948008
    },
    {
      "_id": "59426b2dfea8d3eaf2abe279",
      "city": "Aurangabad",
      "longitude": 84.3542049,
      "latitude": 24.7033198
    },
    {
      "_id": "59426b2dfea8d3eaf2abe27a",
      "city": "Malappuram",
      "longitude": 76.0710967,
      "latitude": 11.0509762
    },
    {
      "_id": "59426b2dfea8d3eaf2abe27b",
      "city": "Rewari",
      "longitude": 76.6239423,
      "latitude": 28.1927631
    },
    {
      "_id": "59426b2dfea8d3eaf2abe27c",
      "city": "Nagaur",
      "longitude": 73.7493272,
      "latitude": 27.1983368
    },
    {
      "_id": "59426b2dfea8d3eaf2abe27d",
      "city": "Sultanpur",
      "longitude": 82.07270609999999,
      "latitude": 26.2647757
    },
    {
      "_id": "59426b2dfea8d3eaf2abe27e",
      "city": "Nagda",
      "longitude": 75.41699179999999,
      "latitude": 23.4454599
    },
    {
      "_id": "59426b2dfea8d3eaf2abe27f",
      "city": "Port Blair",
      "longitude": 92.7264828,
      "latitude": 11.6233774
    },
    {
      "_id": "59426b2dfea8d3eaf2abe280",
      "city": "Lakhisarai",
      "longitude": 86.0988253,
      "latitude": 25.1673614
    },
    {
      "_id": "59426b2dfea8d3eaf2abe281",
      "city": "Panaji",
      "longitude": 73.8278496,
      "latitude": 15.4909301
    },
    {
      "_id": "59426b2dfea8d3eaf2abe282",
      "city": "Tinsukia",
      "longitude": 95.346775,
      "latitude": 27.4921909
    },
    {
      "_id": "59426b2dfea8d3eaf2abe283",
      "city": "Itarsi",
      "longitude": 77.75354399999999,
      "latitude": 22.6054858
    },
    {
      "_id": "59426b2dfea8d3eaf2abe284",
      "city": "Kohima",
      "longitude": 94.10533070000001,
      "latitude": 25.6585963
    },
    {
      "_id": "59426b2dfea8d3eaf2abe286",
      "city": "Nawada",
      "longitude": 85.53547239999999,
      "latitude": 24.8910775
    },
    {
      "_id": "59426b2dfea8d3eaf2abe287",
      "city": "Jharsuguda",
      "longitude": 84.0061661,
      "latitude": 21.8554375
    },
    {
      "_id": "59426b2dfea8d3eaf2abe289",
      "city": "Villupuram",
      "longitude": 79.29021329999999,
      "latitude": 11.9575509
    },
    {
      "_id": "59426b2dfea8d3eaf2abe28a",
      "city": "Amalner",
      "longitude": 75.0581943,
      "latitude": 21.0419208
    },
    {
      "_id": "59426b2dfea8d3eaf2abe28b",
      "city": "Zirakpur",
      "longitude": 76.8173359,
      "latitude": 30.6425496
    },
    {
      "_id": "59426b2dfea8d3eaf2abe28c",
      "city": "Tanda",
      "longitude": 82.66454689999999,
      "latitude": 26.5432647
    },
    {
      "_id": "59426b2dfea8d3eaf2abe28d",
      "city": "Tiruchengode",
      "longitude": 77.89692699999999,
      "latitude": 11.37825
    },
    {
      "_id": "59426b2dfea8d3eaf2abe28e",
      "city": "Nagina",
      "longitude": 78.4326638,
      "latitude": 29.4426409
    },
    {
      "_id": "59426b2dfea8d3eaf2abe28f",
      "city": "Yemmiganur",
      "longitude": 77.4759334,
      "latitude": 15.7641991
    },
    {
      "_id": "59426b2dfea8d3eaf2abe290",
      "city": "Vaniyambadi",
      "longitude": 78.6218853,
      "latitude": 12.6950325
    },
    {
      "_id": "59426b2dfea8d3eaf2abe291",
      "city": "Sarni",
      "longitude": 78.1663346,
      "latitude": 22.1186557
    },
    {
      "_id": "59426b2dfea8d3eaf2abe292",
      "city": "Theni",
      "longitude": 77.4768115,
      "latitude": 10.0103658
    },
    {
      "_id": "59426b2dfea8d3eaf2abe293",
      "city": "Margao",
      "longitude": 73.98619099999999,
      "latitude": 15.2832187
    },
    {
      "_id": "59426b2dfea8d3eaf2abe294",
      "city": "Akot",
      "longitude": 77.053568,
      "latitude": 21.0973361
    },
    {
      "_id": "59426b2dfea8d3eaf2abe295",
      "city": "Sehore",
      "longitude": 77.08507809999999,
      "latitude": 23.205012
    },
    {
      "_id": "59426b2dfea8d3eaf2abe296",
      "city": "Mhow",
      "longitude": 75.7565273,
      "latitude": 22.5524372
    },
    {
      "_id": "59426b2dfea8d3eaf2abe298",
      "city": "Makrana",
      "longitude": 74.714621,
      "latitude": 27.0285581
    },
    {
      "_id": "59426b2dfea8d3eaf2abe299",
      "city": "Pandharpur",
      "longitude": 75.3237262,
      "latitude": 17.6745535
    },
    {
      "_id": "59426b2dfea8d3eaf2abe29a",
      "city": "Miryalaguda",
      "longitude": 79.56596329999999,
      "latitude": 16.8753106
    },
    {
      "_id": "59426b2dfea8d3eaf2abe29b",
      "city": "Shamli",
      "longitude": 77.3152116,
      "latitude": 29.4507575
    },
    {
      "_id": "59426b2dfea8d3eaf2abe29c",
      "city": "Seoni",
      "longitude": 79.5434841,
      "latitude": 22.0868691
    },
    {
      "_id": "59426b2dfea8d3eaf2abe29e",
      "city": "Kadiri",
      "longitude": 78.1605586,
      "latitude": 14.1130272
    },
    {
      "_id": "59426b2dfea8d3eaf2abe29f",
      "city": "Shrirampur",
      "longitude": 74.6576091,
      "latitude": 19.6222323
    },
    {
      "_id": "59426b2dfea8d3eaf2abe2a0",
      "city": "Rudrapur",
      "longitude": 79.4141214,
      "latitude": 28.9875082
    },
    {
      "_id": "59426b2dfea8d3eaf2abe2a3",
      "city": "Nirmal",
      "longitude": 78.342975,
      "latitude": 19.0964117
    },
    {
      "_id": "59426b2dfea8d3eaf2abe2a4",
      "city": "Ooty",
      "longitude": 76.69324379999999,
      "latitude": 11.4064138
    },
    {
      "_id": "59426b2dfea8d3eaf2abe2a5",
      "city": "Shikohabad",
      "longitude": 78.5881674,
      "latitude": 27.1061756
    },
    {
      "_id": "59426b2dfea8d3eaf2abe2a6",
      "city": "Jhumri Telaiya",
      "longitude": 85.53547239999999,
      "latitude": 24.4289365
    },
    {
      "_id": "59426b2dfea8d3eaf2abe2a7",
      "city": "Aruppukkottai",
      "longitude": 78.100015,
      "latitude": 9.515625
    },
    {
      "_id": "59426b2dfea8d3eaf2abe2a8",
      "city": "Ponnani",
      "longitude": 75.92590129999999,
      "latitude": 10.7677201
    },
    {
      "_id": "59426b2dfea8d3eaf2abe2a9",
      "city": "Jamui",
      "longitude": 86.3376761,
      "latitude": 24.764688
    },
    {
      "_id": "59426b2dfea8d3eaf2abe2aa",
      "city": "Sitamarhi",
      "longitude": 85.4808393,
      "latitude": 26.5952476
    },
    {
      "_id": "59426b2dfea8d3eaf2abe2ab",
      "city": "Chirala",
      "longitude": 80.3547286,
      "latitude": 15.8135755
    },
    {
      "_id": "59426b2dfea8d3eaf2abe2ac",
      "city": "Anjar",
      "longitude": 70.02601320000001,
      "latitude": 23.1134605
    },
    {
      "_id": "59426b2dfea8d3eaf2abe2ad",
      "city": "Karaikal",
      "longitude": 79.8380056,
      "latitude": 10.9254398
    },
    {
      "_id": "59426b2dfea8d3eaf2abe2ae",
      "city": "Hansi",
      "longitude": 75.9637413,
      "latitude": 29.0971845
    },
    {
      "_id": "59426b2dfea8d3eaf2abe2af",
      "city": "Anakapalle",
      "longitude": 82.99773309999999,
      "latitude": 17.6895915
    },
    {
      "_id": "59426b2dfea8d3eaf2abe2b0",
      "city": "Mahasamund",
      "longitude": 82.605118,
      "latitude": 21.1705408
    },
    {
      "_id": "59426b2dfea8d3eaf2abe2b1",
      "city": "Faridkot",
      "longitude": 74.7583351,
      "latitude": 30.6769462
    },
    {
      "_id": "59426b2dfea8d3eaf2abe2b2",
      "city": "Saunda Basti",
      "longitude": 85.3444725,
      "latitude": 23.6586435
    },
    {
      "_id": "59426b2dfea8d3eaf2abe2b3",
      "city": "Dhoraji",
      "longitude": 70.4491417,
      "latitude": 21.7398165
    },
    {
      "_id": "59426b2dfea8d3eaf2abe2b4",
      "city": "Paramakudi",
      "longitude": 78.5916335,
      "latitude": 9.5483949
    },
    {
      "_id": "59426b2dfea8d3eaf2abe2b6",
      "city": "Sri Muktsar Sahib",
      "longitude": 74.511172,
      "latitude": 30.4766391
    },
    {
      "_id": "59426b2dfea8d3eaf2abe2b7",
      "city": "Rajpura",
      "longitude": 76.5939516,
      "latitude": 30.483997
    },
    {
      "_id": "59426b2dfea8d3eaf2abe2b8",
      "city": "Kavali",
      "longitude": 79.9929798,
      "latitude": 14.9131806
    },
    {
      "_id": "59426b2dfea8d3eaf2abe2b9",
      "city": "Dhamtari",
      "longitude": 81.55415789999999,
      "latitude": 20.7014999
    },
    {
      "_id": "59426b2dfea8d3eaf2abe2ba",
      "city": "Sujangarh",
      "longitude": 74.4642861,
      "latitude": 27.7044756
    },
    {
      "_id": "59426b2dfea8d3eaf2abe2bb",
      "city": "Sardarshahar",
      "longitude": 74.49370499999999,
      "latitude": 28.440419
    },
    {
      "_id": "59426b2dfea8d3eaf2abe2bc",
      "city": "Ashoknagar",
      "longitude": 77.7318495,
      "latitude": 24.5775148
    },
    {
      "_id": "59426b2dfea8d3eaf2abe2bd",
      "city": "Mahuva",
      "longitude": 71.7704631,
      "latitude": 21.0921598
    },
    {
      "_id": "59426b2dfea8d3eaf2abe2be",
      "city": "Khambhat",
      "longitude": 72.6189845,
      "latitude": 22.3180817
    },
    {
      "_id": "59426b2dfea8d3eaf2abe2bf",
      "city": "Bargarh",
      "longitude": 83.624201,
      "latitude": 21.3425839
    },
    {
      "_id": "59426b2dfea8d3eaf2abe2c0",
      "city": "Kamareddy",
      "longitude": 78.3343051,
      "latitude": 18.3239953
    },
    {
      "_id": "59426b2dfea8d3eaf2abe2c1",
      "city": "Sahibganj",
      "longitude": 87.64535920000002,
      "latitude": 25.2381216
    },
    {
      "_id": "59426b2dfea8d3eaf2abe2c2",
      "city": "Kothagudem",
      "longitude": 80.6143961,
      "latitude": 17.5560036
    },
    {
      "_id": "59426b2dfea8d3eaf2abe2c3",
      "city": "Ramanagara",
      "longitude": 77.2807423,
      "latitude": 12.7094487
    },
    {
      "_id": "59426b2dfea8d3eaf2abe2c4",
      "city": "Gokak",
      "longitude": 74.8156199,
      "latitude": 16.1591849
    },
    {
      "_id": "59426b2dfea8d3eaf2abe2c5",
      "city": "Tikamgarh",
      "longitude": 78.8320779,
      "latitude": 24.7456147
    },
    {
      "_id": "59426b2dfea8d3eaf2abe2c6",
      "city": "Araria",
      "longitude": 87.445534,
      "latitude": 26.1311375
    },
    {
      "_id": "59426b2dfea8d3eaf2abe2c7",
      "city": "Rishikesh",
      "longitude": 78.2676116,
      "latitude": 30.0869281
    },
    {
      "_id": "59426b2dfea8d3eaf2abe2c8",
      "city": "Shahdol",
      "longitude": 81.3568021,
      "latitude": 23.3021885
    },
    {
      "_id": "59426b2dfea8d3eaf2abe2c9",
      "city": "Daltonganj",
      "longitude": 84.0907246,
      "latitude": 24.0420432
    },
    {
      "_id": "59426b2dfea8d3eaf2abe2ca",
      "city": "Arakkonam",
      "longitude": 79.6558242,
      "latitude": 13.0752392
    },
    {
      "_id": "59426b2dfea8d3eaf2abe2cb",
      "city": "Washim",
      "longitude": 77.1312586,
      "latitude": 20.1119123
    },
    {
      "_id": "59426b2dfea8d3eaf2abe2cc",
      "city": "Sangrur",
      "longitude": 75.8420716,
      "latitude": 30.2457963
    },
    {
      "_id": "59426b2dfea8d3eaf2abe2cd",
      "city": "Bodhan Rural",
      "longitude": 77.87674419999999,
      "latitude": 18.6794407
    },
    {
      "_id": "59426b2dfea8d3eaf2abe2ce",
      "city": "Fazilka",
      "longitude": 74.0279621,
      "latitude": 30.4036478
    },
    {
      "_id": "59426b2dfea8d3eaf2abe2cf",
      "city": "Palakollu",
      "longitude": 81.7253415,
      "latitude": 16.5174552
    },
    {
      "_id": "59426b2dfea8d3eaf2abe2d0",
      "city": "Keshod",
      "longitude": 70.2492882,
      "latitude": 21.2997164
    },
    {
      "_id": "59426b2dfea8d3eaf2abe2d1",
      "city": "Sullurupeta",
      "longitude": 80.01807170000001,
      "latitude": 13.70215
    },
    {
      "_id": "59426b2dfea8d3eaf2abe2d2",
      "city": "Wadhwan",
      "longitude": 71.6732681,
      "latitude": 22.711454
    },
    {
      "_id": "59426b2dfea8d3eaf2abe2d3",
      "city": "Gurdaspur",
      "longitude": 75.40533669999999,
      "latitude": 32.0419424
    },
    {
      "_id": "59426b2dfea8d3eaf2abe2d4",
      "city": "Vadakara",
      "longitude": 75.5917092,
      "latitude": 11.608495
    },
    {
      "_id": "59426b2dfea8d3eaf2abe2d5",
      "city": "Tura",
      "longitude": 90.2032141,
      "latitude": 25.5140712
    },
    {
      "_id": "59426b2dfea8d3eaf2abe2d6",
      "city": "Narnaul",
      "longitude": 76.10147810000001,
      "latitude": 28.0657961
    },
    {
      "_id": "59426b2dfea8d3eaf2abe2d7",
      "city": "Kharar",
      "longitude": 76.64135809999999,
      "latitude": 30.7488819
    },
    {
      "_id": "59426b2dfea8d3eaf2abe2d8",
      "city": "Yadgir",
      "longitude": 77.142764,
      "latitude": 16.7601963
    },
    {
      "_id": "59426b2dfea8d3eaf2abe2d9",
      "city": "Ambajogai",
      "longitude": 76.3810922,
      "latitude": 18.7271336
    },
    {
      "_id": "59426b2dfea8d3eaf2abe2da",
      "city": "Ankleshwar",
      "longitude": 73.0151984,
      "latitude": 21.6264236
    },
    {
      "_id": "59426b2dfea8d3eaf2abe2db",
      "city": "Savar Kundla",
      "longitude": 71.3052383,
      "latitude": 21.3376984
    },
    {
      "_id": "59426b2dfea8d3eaf2abe2dc",
      "city": "Paradeep",
      "longitude": 86.6113628,
      "latitude": 20.3165523
    },
    {
      "_id": "59426b2dfea8d3eaf2abe2dd",
      "city": "Kadi",
      "longitude": 72.3310025,
      "latitude": 23.29785
    },
    {
      "_id": "59426b2dfea8d3eaf2abe2de",
      "city": "Srivilliputhur",
      "longitude": 77.6340859,
      "latitude": 9.5121365
    },
    {
      "_id": "59426b2dfea8d3eaf2abe2df",
      "city": "Mandi Gobindgarh",
      "longitude": 76.3000419,
      "latitude": 30.6637378
    },
    {
      "_id": "59426b2dfea8d3eaf2abe2e0",
      "city": "Tindivanam",
      "longitude": 79.6499506,
      "latitude": 12.2368843
    },
    {
      "_id": "59426b2dfea8d3eaf2abe2e1",
      "city": "Mansa",
      "longitude": 75.3936808,
      "latitude": 29.9995069
    },
    {
      "_id": "59426b2dfea8d3eaf2abe2e2",
      "city": "Taliparamba",
      "longitude": 75.36109359999999,
      "latitude": 12.035137
    },
    {
      "_id": "59426b2dfea8d3eaf2abe2e3",
      "city": "Manmad",
      "longitude": 74.4366016,
      "latitude": 20.2511789
    },
    {
      "_id": "59426b2dfea8d3eaf2abe2e4",
      "city": "Tanuku",
      "longitude": 81.67996289999999,
      "latitude": 16.7571731
    },
    {
      "_id": "59426b2dfea8d3eaf2abe2e5",
      "city": "Virudhachalam",
      "longitude": 79.3251583,
      "latitude": 11.5195875
    },
    {
      "_id": "59426b2dfea8d3eaf2abe2e6",
      "city": "Rayachoty",
      "longitude": 78.7518863,
      "latitude": 14.0585458
    },
    {
      "_id": "59426b2dfea8d3eaf2abe2e7",
      "city": "Virudhunagar",
      "longitude": 77.96244349999999,
      "latitude": 9.5680116
    },
    {
      "_id": "59426b2dfea8d3eaf2abe2e8",
      "city": "Koyilandy",
      "longitude": 75.6935323,
      "latitude": 11.4446468
    },
    {
      "_id": "59426b2dfea8d3eaf2abe2e9",
      "city": "Jorhat",
      "longitude": 94.2025859,
      "latitude": 26.7465203
    },
    {
      "_id": "59426b2dfea8d3eaf2abe2ea",
      "city": "Karur",
      "longitude": 78.07660360000001,
      "latitude": 10.9600778
    },
    {
      "_id": "59426b2dfea8d3eaf2abe2eb",
      "city": "Valparai",
      "longitude": 76.951003,
      "latitude": 10.3235908
    },
    {
      "_id": "59426b2dfea8d3eaf2abe2ec",
      "city": "Srikalahasti",
      "longitude": 79.70372549999999,
      "latitude": 13.7520171
    },
    {
      "_id": "59426b2dfea8d3eaf2abe2ed",
      "city": "Neyyattinkara",
      "longitude": 77.08711989999999,
      "latitude": 8.401648
    },
    {
      "_id": "59426b2dfea8d3eaf2abe2ee",
      "city": "Bapatla",
      "longitude": 80.46713749999999,
      "latitude": 15.9039445
    },
    {
      "_id": "59426b2dfea8d3eaf2abe2ef",
      "city": "Fatehabad",
      "longitude": 75.4519516,
      "latitude": 29.5077159
    },
    {
      "_id": "59426b2dfea8d3eaf2abe2f0",
      "city": "Malout",
      "longitude": 74.505312,
      "latitude": 30.1891769
    },
    {
      "_id": "59426b2dfea8d3eaf2abe2f1",
      "city": "Sankarankovil",
      "longitude": 77.53089279999999,
      "latitude": 9.179119199999999
    },
    {
      "_id": "59426b2dfea8d3eaf2abe2f2",
      "city": "Tenkasi",
      "longitude": 77.3129383,
      "latitude": 8.9590214
    },
    {
      "_id": "59426b2dfea8d3eaf2abe2f3",
      "city": "Ratnagiri",
      "longitude": 73.31202329999999,
      "latitude": 16.990215
    },
    {
      "_id": "59426b2dfea8d3eaf2abe2f4",
      "city": "Rabkavi Banhatti",
      "longitude": 75.12243,
      "latitude": 16.4823017
    },
    {
      "_id": "59426b2dfea8d3eaf2abe2f5",
      "city": "Chaibasa",
      "longitude": 85.8025373,
      "latitude": 22.5474364
    },
    {
      "_id": "59426b2dfea8d3eaf2abe2f6",
      "city": "Chirimiri",
      "longitude": 82.354162,
      "latitude": 23.1879502
    },
    {
      "_id": "59426b2dfea8d3eaf2abe2f8",
      "city": "Bhawanipatna",
      "longitude": 83.1641562,
      "latitude": 19.9074279
    },
    {
      "_id": "59426b2dfea8d3eaf2abe2f9",
      "city": "Sikandrabad",
      "longitude": 77.6965573,
      "latitude": 28.452818
    },
    {
      "_id": "59426b2dfea8d3eaf2abe2fa",
      "city": "Kayamkulam",
      "longitude": 76.50133520000001,
      "latitude": 9.174842199999999
    },
    {
      "_id": "59426b2dfea8d3eaf2abe2fb",
      "city": "Pithampur",
      "longitude": 75.6772689,
      "latitude": 22.611121
    },
    {
      "_id": "59426b2dfea8d3eaf2abe2fc",
      "city": "Shahabad",
      "longitude": 79.9447096,
      "latitude": 27.6441382
    },
    {
      "_id": "59426b2dfea8d3eaf2abe2fd",
      "city": "Nabha",
      "longitude": 76.14519039999999,
      "latitude": 30.3736743
    },
    {
      "_id": "59426b2dfea8d3eaf2abe2fe",
      "city": "Dhenkanal",
      "longitude": 85.5972218,
      "latitude": 20.6503455
    },
    {
      "_id": "59426b2dfea8d3eaf2abe2ff",
      "city": "Gopalganj",
      "longitude": 84.4433318,
      "latitude": 26.4685472
    },
    {
      "_id": "59426b2dfea8d3eaf2abe300",
      "city": "Urun Islampur",
      "longitude": 74.2651752,
      "latitude": 17.0500326
    },
    {
      "_id": "59426b2dfea8d3eaf2abe301",
      "city": "Kanhangad",
      "longitude": 75.0961549,
      "latitude": 12.332473
    },
    {
      "_id": "59426b2dfea8d3eaf2abe302",
      "city": "Bongaigaon",
      "longitude": 90.5352356,
      "latitude": 26.5009992
    },
    {
      "_id": "59426b2dfea8d3eaf2abe303",
      "city": "Palani",
      "longitude": 77.5209392,
      "latitude": 10.4489188
    },
    {
      "_id": "59426b2dfea8d3eaf2abe304",
      "city": "Pusad",
      "longitude": 77.568649,
      "latitude": 19.9104257
    },
    {
      "_id": "59426b2dfea8d3eaf2abe305",
      "city": "Sopore",
      "longitude": 74.4624013,
      "latitude": 34.2867629
    },
    {
      "_id": "59426b2dfea8d3eaf2abe306",
      "city": "Pilkhuwa",
      "longitude": 77.656476,
      "latitude": 28.7075751
    },
    {
      "_id": "59426b2dfea8d3eaf2abe307",
      "city": "Tarn Taran Sahib",
      "longitude": 74.9267599,
      "latitude": 31.4538668
    },
    {
      "_id": "59426b2dfea8d3eaf2abe308",
      "city": "Renukoot Colony",
      "longitude": 83.03460729999999,
      "latitude": 24.2182429
    },
    {
      "_id": "59426b2dfea8d3eaf2abe309",
      "city": "Mandamarri",
      "longitude": 79.4791434,
      "latitude": 18.9871177
    },
    {
      "_id": "59426b2dfea8d3eaf2abe30a",
      "city": "Shahabad",
      "longitude": 76.94702199999999,
      "latitude": 17.1296741
    },
    {
      "_id": "59426b2dfea8d3eaf2abe30b",
      "city": "Korutla",
      "longitude": 78.7139986,
      "latitude": 18.826865
    },
    {
      "_id": "59426b2dfea8d3eaf2abe30c",
      "city": "Barbil",
      "longitude": 85.3789642,
      "latitude": 22.1053397
    },
    {
      "_id": "59426b2dfea8d3eaf2abe30d",
      "city": "Arambagh",
      "longitude": 87.79108910000001,
      "latitude": 22.8727502
    },
    {
      "_id": "59426b2dfea8d3eaf2abe30e",
      "city": "Gohana",
      "longitude": 76.69324379999999,
      "latitude": 29.1384064
    },
    {
      "_id": "59426b2dfea8d3eaf2abe30f",
      "city": "Madhubani",
      "longitude": 86.17517590000001,
      "latitude": 26.4627955
    },
    {
      "_id": "59426b2dfea8d3eaf2abe310",
      "city": "Ladnun",
      "longitude": 74.38806989999999,
      "latitude": 27.6442908
    },
    {
      "_id": "59426b2dfea8d3eaf2abe311",
      "city": "Pattukkottai",
      "longitude": 79.3140301,
      "latitude": 10.4252814
    },
    {
      "_id": "59426b2dfea8d3eaf2abe312",
      "city": "Sirsi",
      "longitude": 74.8448648,
      "latitude": 14.6170943
    },
    {
      "_id": "59426b2dfea8d3eaf2abe313",
      "city": "Sircilla",
      "longitude": 78.8014505,
      "latitude": 18.3892197
    },
    {
      "_id": "59426b2dfea8d3eaf2abe314",
      "city": "Tamluk",
      "longitude": 87.9187711,
      "latitude": 22.2787843
    },
    {
      "_id": "59426b2dfea8d3eaf2abe315",
      "city": "Jagraon",
      "longitude": 75.46942849999999,
      "latitude": 30.7915511
    },
    {
      "_id": "59426b2dfea8d3eaf2abe316",
      "city": "West Bengal",
      "latitude": 22.9867569,
      "longitude": 87.8549755
    },
    {
      "_id": "59426b2dfea8d3eaf2abe317",
      "city": "Alirajpur",
      "longitude": 74.4994517,
      "latitude": 22.3403431
    },
    {
      "_id": "59426b2dfea8d3eaf2abe318",
      "city": "Tandur",
      "longitude": 77.5874633,
      "latitude": 17.2575756
    },
    {
      "_id": "59426b2dfea8d3eaf2abe319",
      "city": "Naidupeta",
      "longitude": 79.8940483,
      "latitude": 13.9066043
    },
    {
      "_id": "59426b2dfea8d3eaf2abe31a",
      "city": "Tirupattur",
      "longitude": 78.57017490000001,
      "latitude": 12.5080698
    },
    {
      "_id": "59426b2dfea8d3eaf2abe31b",
      "city": "Tohana",
      "longitude": 75.9056753,
      "latitude": 29.7163129
    },
    {
      "_id": "59426b2dfea8d3eaf2abe31c",
      "city": "Ratangarh",
      "longitude": 74.2736848,
      "latitude": 26.2982541
    },
    {
      "_id": "59426b2dfea8d3eaf2abe31d",
      "city": "Dhubri",
      "longitude": 89.9743463,
      "latitude": 26.0206982
    },
    {
      "_id": "59426b2dfea8d3eaf2abe31e",
      "city": "Masaurhi",
      "longitude": 85.0311411,
      "latitude": 25.3512814
    },
    {
      "_id": "59426b2dfea8d3eaf2abe31f",
      "city": "Visnagar",
      "longitude": 72.53822930000001,
      "latitude": 23.6977038
    },
    {
      "_id": "59426b2dfea8d3eaf2abe320",
      "city": "Vrindavan",
      "longitude": 77.6593394,
      "latitude": 27.5650088
    },
    {
      "_id": "59426b2dfea8d3eaf2abe321",
      "city": "Nokha",
      "longitude": 73.47318709999999,
      "latitude": 27.5562169
    },
    {
      "_id": "59426b2dfea8d3eaf2abe322",
      "city": "Nagari",
      "longitude": 79.585628,
      "latitude": 13.3200519
    },
    {
      "_id": "59426b2dfea8d3eaf2abe323",
      "city": "Narwana",
      "longitude": 76.1145993,
      "latitude": 29.5910963
    },
    {
      "_id": "59426b2dfea8d3eaf2abe324",
      "city": "Ramanathapuram",
      "longitude": 78.83508549999999,
      "latitude": 9.3647215
    },
    {
      "_id": "59426b2dfea8d3eaf2abe325",
      "city": "Ujhani",
      "longitude": 79.0051685,
      "latitude": 28.0003235
    },
    {
      "_id": "59426b2dfea8d3eaf2abe326",
      "city": "Samastipur",
      "longitude": 85.8895551,
      "latitude": 25.7470658
    },
    {
      "_id": "59426b2dfea8d3eaf2abe327",
      "city": "Laharpur",
      "longitude": 80.901416,
      "latitude": 27.710096
    },
    {
      "_id": "59426b2dfea8d3eaf2abe328",
      "city": "Sangamner",
      "longitude": 74.2079648,
      "latitude": 19.5771387
    },
    {
      "_id": "59426b2dfea8d3eaf2abe329",
      "city": "Nimbahera",
      "longitude": 74.68102739999999,
      "latitude": 24.6256587
    },
    {
      "_id": "59426b2dfea8d3eaf2abe32c",
      "city": "Diphu",
      "longitude": 93.42987459999999,
      "latitude": 25.846525
    },
    {
      "_id": "59426b2dfea8d3eaf2abe32d",
      "city": "Jhargram",
      "longitude": 86.9974385,
      "latitude": 22.4549909
    },
    {
      "_id": "59426b2dfea8d3eaf2abe32e",
      "city": "Shirpur-Warwade",
      "longitude": 74.86825689999999,
      "latitude": 21.370536
    },
    {
      "_id": "59426b2dfea8d3eaf2abe32f",
      "city": "Tilhar",
      "longitude": 79.73843459999999,
      "latitude": 27.963417
    },
    {
      "_id": "59426b2dfea8d3eaf2abe330",
      "city": "Sindhanur",
      "longitude": 76.7560495,
      "latitude": 15.7702099
    },
    {
      "_id": "59426b2dfea8d3eaf2abe331",
      "city": "Udumalpet",
      "longitude": 77.2514456,
      "latitude": 10.5845698
    },
    {
      "_id": "59426b2dfea8d3eaf2abe332",
      "city": "Malkapur",
      "longitude": 76.2162709,
      "latitude": 20.886483
    },
    {
      "_id": "59426b2dfea8d3eaf2abe333",
      "city": "Wanaparthy",
      "longitude": 78.0621824,
      "latitude": 16.3623118
    },
    {
      "_id": "59426b2dfea8d3eaf2abe334",
      "city": "Gudur",
      "longitude": 79.8503887,
      "latitude": 14.1463188
    },
    {
      "_id": "59426b2dfea8d3eaf2abe335",
      "city": "Keonjhar",
      "longitude": 85.5816847,
      "latitude": 21.628933
    },
    {
      "_id": "59426b2dfea8d3eaf2abe336",
      "city": "Mandla",
      "longitude": 80.3713855,
      "latitude": 22.5979218
    },
    {
      "_id": "59426b2dfea8d3eaf2abe337",
      "city": "Mandi",
      "longitude": 76.91820969999999,
      "latitude": 31.5892006
    },
    {
      "_id": "59426b2dfea8d3eaf2abe338",
      "city": "Nedumangad",
      "longitude": 77.004626,
      "latitude": 8.6080226
    },
    {
      "_id": "59426b2dfea8d3eaf2abe339",
      "city": "North Lakhimpur",
      "longitude": 94.10533070000001,
      "latitude": 27.2253189
    },
    {
      "_id": "59426b2dfea8d3eaf2abe33a",
      "city": "Vinukonda",
      "longitude": 79.7453318,
      "latitude": 16.0568398
    },
    {
      "_id": "59426b2dfea8d3eaf2abe33b",
      "city": "Tiptur",
      "longitude": 76.4702946,
      "latitude": 13.2637814
    },
    {
      "_id": "59426b2dfea8d3eaf2abe33c",
      "city": "Gobichettipalayam",
      "longitude": 77.43003569999999,
      "latitude": 11.4504099
    },
    {
      "_id": "59426b2dfea8d3eaf2abe33d",
      "city": "Sunabeda",
      "longitude": 82.8317486,
      "latitude": 18.7298862
    },
    {
      "_id": "59426b2dfea8d3eaf2abe33e",
      "city": "Wani",
      "longitude": 78.9571069,
      "latitude": 20.0608371
    },
    {
      "_id": "59426b2dfea8d3eaf2abe33f",
      "city": "Upleta",
      "longitude": 70.2795033,
      "latitude": 21.7395387
    },
    {
      "_id": "59426b2dfea8d3eaf2abe340",
      "city": "Narsapur",
      "longitude": 81.6966198,
      "latitude": 16.4329833
    },
    {
      "_id": "59426b2dfea8d3eaf2abe341",
      "city": "Nuzividu",
      "longitude": 80.8488498,
      "latitude": 16.7849906
    },
    {
      "_id": "59426b2dfea8d3eaf2abe342",
      "city": "Tezpur",
      "longitude": 92.7925592,
      "latitude": 26.6528495
    },
    {
      "_id": "59426b2dfea8d3eaf2abe343",
      "city": "Una",
      "longitude": 71.0408624,
      "latitude": 20.8234992
    },
    {
      "_id": "59426b2dfea8d3eaf2abe344",
      "city": "Markapur",
      "longitude": 79.269125,
      "latitude": 15.7361535
    },
    {
      "_id": "59426b2dfea8d3eaf2abe345",
      "city": "Sheopur",
      "longitude": 76.6961305,
      "latitude": 25.67282
    },
    {
      "_id": "59426b2dfea8d3eaf2abe346",
      "city": "Thiruvarur",
      "longitude": 79.63482479999999,
      "latitude": 10.7668127
    },
    {
      "_id": "59426b2dfea8d3eaf2abe347",
      "city": "Siddhpur",
      "longitude": 72.3668366,
      "latitude": 23.9196207
    },
    {
      "_id": "59426b2dfea8d3eaf2abe348",
      "city": "Sahaswan",
      "longitude": 78.7561222,
      "latitude": 28.0724712
    },
    {
      "_id": "59426b2dfea8d3eaf2abe349",
      "city": "Suratgarh",
      "longitude": 73.9009228,
      "latitude": 29.32186
    },
    {
      "_id": "59426b2dfea8d3eaf2abe34a",
      "city": "Shajapur",
      "longitude": 76.2729839,
      "latitude": 23.4272938
    },
    {
      "_id": "59426b2dfea8d3eaf2abe34b",
      "city": "Rayagada",
      "longitude": 83.4163226,
      "latitude": 19.171209
    },
    {
      "_id": "59426b2dfea8d3eaf2abe34c",
      "city": "Lonavala",
      "longitude": 73.4062342,
      "latitude": 18.7546171
    },
    {
      "_id": "59426b2dfea8d3eaf2abe34d",
      "city": "Ponnur",
      "longitude": 80.5481667,
      "latitude": 16.0685991
    },
    {
      "_id": "59426b2dfea8d3eaf2abe34e",
      "city": "Sirpur-Kaghaznagar",
      "longitude": 79.4823339,
      "latitude": 19.3581456
    },
    {
      "_id": "59426b2dfea8d3eaf2abe34f",
      "city": "Gadwal",
      "longitude": 77.8081363,
      "latitude": 16.2336589
    },
    {
      "_id": "59426b2dfea8d3eaf2abe350",
      "city": "Bhatapara",
      "longitude": 81.948026,
      "latitude": 21.73837
    },
    {
      "_id": "59426b2dfea8d3eaf2abe351",
      "city": "Kandukur",
      "longitude": 79.9024779,
      "latitude": 15.219717
    },
    {
      "_id": "59426b2dfea8d3eaf2abe352",
      "city": "Sangareddy",
      "longitude": 78.0823084,
      "latitude": 17.6194158
    },
    {
      "_id": "59426b2dfea8d3eaf2abe353",
      "city": "Unjha",
      "longitude": 72.3843867,
      "latitude": 23.8063156
    },
    {
      "_id": "59426b2dfea8d3eaf2abe354",
      "city": "Lunglei",
      "longitude": 92.7655358,
      "latitude": 22.8670691
    },
    {
      "_id": "59426b2dfea8d3eaf2abe355",
      "city": "Karimganj",
      "longitude": 92.38136209999999,
      "latitude": 24.6005479
    },
    {
      "_id": "59426b2dfea8d3eaf2abe356",
      "city": "Mokama",
      "longitude": 85.917677,
      "latitude": 25.3961861
    },
    {
      "_id": "59426b2dfea8d3eaf2abe357",
      "city": "Talegaon Dabhade",
      "longitude": 73.6830521,
      "latitude": 18.7391977
    },
    {
      "_id": "59426b2dfea8d3eaf2abe358",
      "city": "Anjangaon",
      "longitude": 77.3152116,
      "latitude": 21.1670988
    },
    {
      "_id": "59426b2dfea8d3eaf2abe359",
      "city": "Mangrol",
      "longitude": 70.11581129999999,
      "latitude": 21.1171698
    },
    {
      "_id": "59426b2dfea8d3eaf2abe35a",
      "city": "Sunam",
      "longitude": 75.8137192,
      "latitude": 30.1251635
    },
    {
      "_id": "59426b2dfea8d3eaf2abe35b",
      "city": "Gangarampur",
      "longitude": 88.53236059999999,
      "latitude": 25.40091
    },
    {
      "_id": "59426b2dfea8d3eaf2abe35c",
      "city": "Tiruvallur",
      "longitude": 80.0087746,
      "latitude": 13.2544335
    },
    {
      "_id": "59426b2dfea8d3eaf2abe35d",
      "city": "Tirur",
      "longitude": 75.9220929,
      "latitude": 10.9146271
    },
    {
      "_id": "59426b2dfea8d3eaf2abe35e",
      "city": "Kannur",
      "longitude": 75.37036619999999,
      "latitude": 11.8744775
    },
    {
      "_id": "59426b2dfea8d3eaf2abe35f",
      "city": "Rath",
      "longitude": 79.56596329999999,
      "latitude": 25.6021251
    },
    {
      "_id": "59426b2dfea8d3eaf2abe360",
      "city": "Jatni",
      "longitude": 85.70586929999999,
      "latitude": 20.1703784
    },
    {
      "_id": "59426b2dfea8d3eaf2abe361",
      "city": "Viramgam",
      "longitude": 72.0527421,
      "latitude": 23.1236377
    },
    {
      "_id": "59426b2dfea8d3eaf2abe362",
      "city": "Rajsamand",
      "longitude": 73.8830701,
      "latitude": 25.0714851
    },
    {
      "_id": "59426b2dfea8d3eaf2abe363",
      "city": "Yanam",
      "longitude": 82.21757749999999,
      "latitude": 16.7271912
    },
    {
      "_id": "59426b2dfea8d3eaf2abe364",
      "city": "Kottayam",
      "longitude": 76.5221531,
      "latitude": 9.591566799999999
    },
    {
      "_id": "59426b2dfea8d3eaf2abe365",
      "city": "Bobbili",
      "longitude": 83.3583654,
      "latitude": 18.5735047
    },
    {
      "_id": "59426b2dfea8d3eaf2abe366",
      "city": "Panruti",
      "longitude": 79.5629117,
      "latitude": 11.7665792
    },
    {
      "_id": "59426b2dfea8d3eaf2abe367",
      "city": "Dhuri",
      "longitude": 75.85920519999999,
      "latitude": 30.3676834
    },
    {
      "_id": "59426b2dfea8d3eaf2abe368",
      "city": "Namakkal",
      "longitude": 78.1677236,
      "latitude": 11.2194391
    },
    {
      "_id": "59426b2dfea8d3eaf2abe369",
      "city": "Kasaragod",
      "longitude": 74.9851678,
      "latitude": 12.5102239
    },
    {
      "_id": "59426b2dfea8d3eaf2abe36a",
      "city": "Modasa",
      "longitude": 73.2999385,
      "latitude": 23.4628686
    },
    {
      "_id": "59426b2dfea8d3eaf2abe36b",
      "city": "Rayadurgam",
      "longitude": 76.85465049999999,
      "latitude": 14.696869
    },
    {
      "_id": "59426b2dfea8d3eaf2abe36c",
      "city": "Supaul",
      "longitude": 86.8220341,
      "latitude": 26.2899113
    },
    {
      "_id": "59426b2dfea8d3eaf2abe36d",
      "city": "Kunnamkulam",
      "longitude": 76.07109950000002,
      "latitude": 10.6515875
    },
    {
      "_id": "59426b2dfea8d3eaf2abe36e",
      "city": "Umred",
      "longitude": 79.3261084,
      "latitude": 20.8420718
    },
    {
      "_id": "59426b2dfea8d3eaf2abe36f",
      "city": "Bellampalli",
      "longitude": 79.4911758,
      "latitude": 19.0715572
    },
    {
      "_id": "59426b2dfea8d3eaf2abe370",
      "city": "Sivasagar",
      "longitude": 94.6424521,
      "latitude": 26.9826098
    },
    {
      "_id": "59426b2dfea8d3eaf2abe371",
      "city": "Mandi Dabwali",
      "longitude": 74.70013279999999,
      "latitude": 29.9671034
    },
    {
      "_id": "59426b2dfea8d3eaf2abe372",
      "city": "Ottapalam",
      "longitude": 76.36951669999999,
      "latitude": 10.7722644
    },
    {
      "_id": "59426b2dfea8d3eaf2abe373",
      "city": "Dumraon",
      "longitude": 84.1500155,
      "latitude": 25.5501128
    },
    {
      "_id": "59426b2dfea8d3eaf2abe374",
      "city": "Samarlakota",
      "longitude": 82.1659243,
      "latitude": 17.0504374
    },
    {
      "_id": "59426b2dfea8d3eaf2abe375",
      "city": "Jaggayyapet",
      "longitude": 80.1037721,
      "latitude": 16.9021166
    },
    {
      "_id": "59426b2dfea8d3eaf2abe376",
      "city": "Goalpara",
      "longitude": 90.62515409999999,
      "latitude": 26.1641342
    },
    {
      "_id": "59426b2dfea8d3eaf2abe377",
      "city": "Tuni",
      "longitude": 82.54293249999999,
      "latitude": 17.355267
    },
    {
      "_id": "59426b2dfea8d3eaf2abe378",
      "city": "Laxmangarh",
      "longitude": 75.03190860000001,
      "latitude": 27.819749
    },
    {
      "_id": "59426b2dfea8d3eaf2abe379",
      "city": "Bhuvanagiri",
      "longitude": 78.8892146,
      "latitude": 17.5035389
    },
    {
      "_id": "59426b2dfea8d3eaf2abe37a",
      "city": "Amalapuram",
      "longitude": 82.0008548,
      "latitude": 16.5720904
    },
    {
      "_id": "59426b2dfea8d3eaf2abe37b",
      "city": "Ferozepur Cantt",
      "longitude": 74.6224755,
      "latitude": 30.9107385
    },
    {
      "_id": "59426b2dfea8d3eaf2abe37c",
      "city": "Sherkot",
      "longitude": 78.574602,
      "latitude": 29.3227736
    },
    {
      "_id": "59426b2dfea8d3eaf2abe37e",
      "city": "Shegaon",
      "longitude": 76.6943283,
      "latitude": 20.7927132
    },
    {
      "_id": "59426b2dfea8d3eaf2abe37f",
      "city": "Jangaon",
      "longitude": 79.1604971,
      "latitude": 17.7288387
    },
    {
      "_id": "59426b2dfea8d3eaf2abe380",
      "city": "Bheemunipatnam",
      "longitude": 83.4269996,
      "latitude": 17.9075221
    },
    {
      "_id": "59426b2dfea8d3eaf2abe381",
      "city": "Panna",
      "longitude": 80.1819268,
      "latitude": 24.7180311
    },
    {
      "_id": "59426b2dfea8d3eaf2abe382",
      "city": "Thodupuzha",
      "longitude": 76.7221082,
      "latitude": 9.8929802
    },
    {
      "_id": "59426b2dfea8d3eaf2abe384",
      "city": "Vikarabad",
      "longitude": 77.9048483,
      "latitude": 17.3364298
    },
    {
      "_id": "59426b2dfea8d3eaf2abe385",
      "city": "Palitana",
      "longitude": 71.82748459999999,
      "latitude": 21.5346305
    },
    {
      "_id": "59426b2dfea8d3eaf2abe386",
      "city": "Venkatagiri",
      "longitude": 79.58843689999999,
      "latitude": 13.9628978
    },
    {
      "_id": "59426b2dfea8d3eaf2abe387",
      "city": "Arwal",
      "longitude": 84.6688348,
      "latitude": 25.1643264
    },
    {
      "_id": "59426b2dfea8d3eaf2abe388",
      "city": "Thiruvalla",
      "longitude": 76.574057,
      "latitude": 9.383452199999999
    },
    {
      "_id": "59426b2dfea8d3eaf2abe389",
      "city": "Kalpi",
      "longitude": 79.74839949999999,
      "latitude": 26.1209624
    },
    {
      "_id": "59426b2dfea8d3eaf2abe38a",
      "city": "Sadulpur",
      "longitude": 75.3820239,
      "latitude": 28.6353435
    },
    {
      "_id": "59426b2dfea8d3eaf2abe38b",
      "city": "Sattenapalle",
      "longitude": 80.1512317,
      "latitude": 16.3944043
    },
    {
      "_id": "59426b2dfea8d3eaf2abe38c",
      "city": "Arsikere",
      "longitude": 76.2537052,
      "latitude": 13.3104549
    },
    {
      "_id": "59426b2dfea8d3eaf2abe38d",
      "city": "Ojhar",
      "longitude": 73.92845489999999,
      "latitude": 20.0997268
    },
    {
      "_id": "59426b2dfea8d3eaf2abe38e",
      "city": "Tirumangalam",
      "longitude": 77.9881401,
      "latitude": 9.8232884
    },
    {
      "_id": "59426b2dfea8d3eaf2abe38f",
      "city": "Petlad",
      "longitude": 72.801351,
      "latitude": 22.4836145
    },
    {
      "_id": "59426b2dfea8d3eaf2abe390",
      "city": "Nasirabad",
      "longitude": 74.7354242,
      "latitude": 26.2983975
    },
    {
      "_id": "59426b2dfea8d3eaf2abe391",
      "city": "Phaltan",
      "longitude": 74.43604239999999,
      "latitude": 17.9844507
    },
    {
      "_id": "59426b2dfea8d3eaf2abe392",
      "city": "Rampurhat",
      "longitude": 87.7812524,
      "latitude": 24.1813784
    },
    {
      "_id": "59426b2dfea8d3eaf2abe393",
      "city": "Nanjanagudu",
      "longitude": 76.680093,
      "latitude": 12.1199769
    },
    {
      "_id": "59426b2dfea8d3eaf2abe394",
      "city": "Forbesganj",
      "longitude": 87.26661209999999,
      "latitude": 26.2992736
    },
    {
      "_id": "59426b2dfea8d3eaf2abe395",
      "city": "Tundla",
      "longitude": 78.23907059999999,
      "latitude": 27.2135222
    },
    {
      "_id": "59426b2dfea8d3eaf2abe396",
      "city": "Bihar",
      "latitude": 25.0960742,
      "longitude": 85.31311939999999
    },
    {
      "_id": "59426b2dfea8d3eaf2abe397",
      "city": "Sagar",
      "longitude": 75.0403,
      "latitude": 14.1670402
    },
    {
      "_id": "59426b2dfea8d3eaf2abe398",
      "city": "Pithapuram",
      "longitude": 82.2528975,
      "latitude": 17.1124269
    },
    {
      "_id": "59426b2dfea8d3eaf2abe399",
      "city": "Sira",
      "longitude": 76.8989501,
      "latitude": 13.7447631
    },
    {
      "_id": "59426b2dfea8d3eaf2abe39a",
      "city": "Bhadrachalam",
      "longitude": 80.8935925,
      "latitude": 17.6687912
    },
    {
      "_id": "59426b2dfea8d3eaf2abe39b",
      "city": "Charkhi Dadri",
      "longitude": 76.2652909,
      "latitude": 28.5920617
    },
    {
      "_id": "59426b2dfea8d3eaf2abe39c",
      "city": "Chatra",
      "longitude": 84.87242839999999,
      "latitude": 24.2065083
    },
    {
      "_id": "59426b2dfea8d3eaf2abe39d",
      "city": "Kasibugga",
      "longitude": 84.4330214,
      "latitude": 18.7665407
    },
    {
      "_id": "59426b2dfea8d3eaf2abe39e",
      "city": "Nohar",
      "longitude": 74.7688173,
      "latitude": 29.174841
    },
    {
      "_id": "59426b2dfea8d3eaf2abe39f",
      "city": "Yeola",
      "longitude": 74.4818698,
      "latitude": 20.0471229
    },
    {
      "_id": "59426b2dfea8d3eaf2abe3a0",
      "city": "Sirhind",
      "longitude": 76.3863018,
      "latitude": 30.6245124
    },
    {
      "_id": "59426b2dfea8d3eaf2abe3a1",
      "city": "Bhainsa",
      "longitude": 77.96529900000002,
      "latitude": 19.1030659
    },
    {
      "_id": "59426b2dfea8d3eaf2abe3a2",
      "city": "Parvathipuram",
      "longitude": 83.42675179999999,
      "latitude": 18.7817162
    },
    {
      "_id": "59426b2dfea8d3eaf2abe3a3",
      "city": "Shahada",
      "longitude": 74.4683333,
      "latitude": 21.5455841
    },
    {
      "_id": "59426b2dfea8d3eaf2abe3a4",
      "city": "Chalakudy",
      "longitude": 76.3336779,
      "latitude": 10.3080272
    },
    {
      "_id": "59426b2dfea8d3eaf2abe3a5",
      "city": "Narkatiaganj",
      "longitude": 84.4645184,
      "latitude": 27.1059249
    },
    {
      "_id": "59426b2dfea8d3eaf2abe3a6",
      "city": "Kapadvanj",
      "longitude": 73.0700421,
      "latitude": 23.0200163
    },
    {
      "_id": "59426b2dfea8d3eaf2abe3a7",
      "city": "Macherla",
      "longitude": 79.4394459,
      "latitude": 16.4759885
    },
    {
      "_id": "59426b2dfea8d3eaf2abe3a8",
      "city": "Raghogarh -Vijaypur",
      "longitude": 77.1600201,
      "latitude": 24.4829658
    },
    {
      "_id": "59426b2dfea8d3eaf2abe3aa",
      "city": "Naugachia",
      "longitude": 87.0979867,
      "latitude": 25.387344
    },
    {
      "_id": "59426b2dfea8d3eaf2abe3ab",
      "city": "Sendhwa",
      "longitude": 75.0942651,
      "latitude": 21.6818986
    },
    {
      "_id": "59426b2dfea8d3eaf2abe3ac",
      "city": "Jajpur Road",
      "longitude": 86.1191966,
      "latitude": 20.9484358
    },
    {
      "_id": "59426b2dfea8d3eaf2abe3ad",
      "city": "Sandila",
      "longitude": 80.51790679999999,
      "latitude": 27.0728513
    },
    {
      "_id": "59426b2dfea8d3eaf2abe3ae",
      "city": "Gooty",
      "longitude": 77.6325593,
      "latitude": 15.1229477
    },
    {
      "_id": "59426b2dfea8d3eaf2abe3af",
      "city": "Salur",
      "longitude": 83.20508629999999,
      "latitude": 18.5163848
    },
    {
      "_id": "59426b2dfea8d3eaf2abe3b0",
      "city": "Nanpara",
      "longitude": 81.4992884,
      "latitude": 27.8674709
    },
    {
      "_id": "59426b2dfea8d3eaf2abe3b1",
      "city": "Sardhana",
      "longitude": 77.6163803,
      "latitude": 29.1450749
    },
    {
      "_id": "59426b2dfea8d3eaf2abe3b2",
      "city": "Vita",
      "longitude": 74.53571269999999,
      "latitude": 17.2751726
    },
    {
      "_id": "59426b2dfea8d3eaf2abe3b3",
      "city": "Gumia",
      "longitude": 85.8230251,
      "latitude": 23.808091
    },
    {
      "_id": "59426b2dfea8d3eaf2abe3b4",
      "city": "Puttur",
      "longitude": 75.2070644,
      "latitude": 12.7686756
    },
    {
      "_id": "59426b2dfea8d3eaf2abe3b5",
      "city": "Jalandhar Cantt",
      "longitude": 75.6203283,
      "latitude": 31.2884966
    },
    {
      "_id": "59426b2dfea8d3eaf2abe3b6",
      "city": "Nethaur",
      "longitude": 78.3870668,
      "latitude": 29.3236371
    },
    {
      "_id": "59426b2dfea8d3eaf2abe3b7",
      "city": "Changanassery",
      "longitude": 76.5409655,
      "latitude": 9.4458875
    },
    {
      "_id": "59426b2dfea8d3eaf2abe3b8",
      "city": "Mandapeta",
      "longitude": 81.9261999,
      "latitude": 16.8652942
    },
    {
      "_id": "59426b2dfea8d3eaf2abe3b9",
      "city": "Dumka",
      "longitude": 87.2419299,
      "latitude": 24.2854664
    },
    {
      "_id": "59426b2dfea8d3eaf2abe3ba",
      "city": "Seohara",
      "longitude": 78.5944718,
      "latitude": 29.2012596
    },
    {
      "_id": "59426b2dfea8d3eaf2abe3bb",
      "city": "Umarkhed",
      "longitude": 77.6916128,
      "latitude": 19.5975885
    },
    {
      "_id": "59426b2dfea8d3eaf2abe3bc",
      "city": "Madhupur",
      "longitude": 86.64801729999999,
      "latitude": 24.2653802
    },
    {
      "_id": "59426b2dfea8d3eaf2abe3bd",
      "city": "Vickramasingapuram",
      "longitude": 77.3841197,
      "latitude": 8.717801200000002
    },
    {
      "_id": "59426b2dfea8d3eaf2abe3be",
      "city": "Punalur",
      "longitude": 76.9297354,
      "latitude": 9.009768
    },
    {
      "_id": "59426b2dfea8d3eaf2abe3bf",
      "city": "Kendrapara",
      "longitude": 86.6611083,
      "latitude": 20.5848321
    },
    {
      "_id": "59426b2dfea8d3eaf2abe3c0",
      "city": "Shihor",
      "longitude": 71.957917,
      "latitude": 21.7216385
    },
    {
      "_id": "59426b2dfea8d3eaf2abe3c1",
      "city": "Nellikkuppam",
      "longitude": 79.6670506,
      "latitude": 11.7747773
    },
    {
      "_id": "59426b2dfea8d3eaf2abe3c2",
      "city": "Samana",
      "longitude": 76.1957618,
      "latitude": 30.1554341
    },
    {
      "_id": "59426b2dfea8d3eaf2abe3c3",
      "city": "Warora",
      "longitude": 79.01364749999999,
      "latitude": 20.2406535
    },
    {
      "_id": "59426b2dfea8d3eaf2abe3c4",
      "city": "Nilambur",
      "longitude": 76.23978500000001,
      "latitude": 11.279432
    },
    {
      "_id": "59426b2dfea8d3eaf2abe3c5",
      "city": "Rasipuram",
      "longitude": 78.1792434,
      "latitude": 11.442882
    },
    {
      "_id": "59426b2dfea8d3eaf2abe3c6",
      "city": "Ramnagar",
      "longitude": 79.1264997,
      "latitude": 29.3947643
    },
    {
      "_id": "59426b2dfea8d3eaf2abe3c7",
      "city": "Jammalamadugu",
      "longitude": 78.3899108,
      "latitude": 14.8474197
    },
    {
      "_id": "59426b2dfea8d3eaf2abe3c8",
      "city": "Shaheed Bhagat Singh Nagar",
      "longitude": 76.0391909,
      "latitude": 31.0912954
    },
    {
      "_id": "59426b2dfea8d3eaf2abe3c9",
      "city": "Thoubal",
      "longitude": 93.99929000000002,
      "latitude": 24.6449243
    },
    {
      "_id": "59426b2dfea8d3eaf2abe3ca",
      "city": "Athani",
      "longitude": 75.06409289999999,
      "latitude": 16.7268811
    },
    {
      "_id": "59426b2dfea8d3eaf2abe3cb",
      "city": "Cherthala",
      "longitude": 76.3365377,
      "latitude": 9.6836368
    },
    {
      "_id": "59426b2dfea8d3eaf2abe3cc",
      "city": "Sidhi",
      "longitude": 81.77870209999999,
      "latitude": 24.2071092
    },
    {
      "_id": "59426b2dfea8d3eaf2abe3cd",
      "city": "Farooqnagar",
      "longitude": 78.1906417,
      "latitude": 17.0732998
    },
    {
      "_id": "59426b2dfea8d3eaf2abe3ce",
      "city": "Peddapuram",
      "longitude": 82.1360026,
      "latitude": 17.0756673
    },
    {
      "_id": "59426b2dfea8d3eaf2abe3cf",
      "city": "Chirkunda",
      "longitude": 86.7868768,
      "latitude": 23.747887
    },
    {
      "_id": "59426b2dfea8d3eaf2abe3d0",
      "city": "Pachora",
      "longitude": 75.3479911,
      "latitude": 20.6655105
    },
    {
      "_id": "59426b2dfea8d3eaf2abe3d1",
      "city": "Madhepura",
      "longitude": 86.79097589999999,
      "latitude": 25.9286903
    },
    {
      "_id": "59426b2dfea8d3eaf2abe3d2",
      "city": "Pithoragarh",
      "longitude": 80.2181884,
      "latitude": 29.5828604
    },
    {
      "_id": "59426b2dfea8d3eaf2abe3d3",
      "city": "Tumsar",
      "longitude": 79.7455956,
      "latitude": 21.3808404
    },
    {
      "_id": "59426b2dfea8d3eaf2abe3d4",
      "city": "Phalodi",
      "longitude": 72.3589284,
      "latitude": 27.1312346
    },
    {
      "_id": "59426b2dfea8d3eaf2abe3d5",
      "city": "Thiruthani",
      "longitude": 79.6109049,
      "latitude": 13.1758491
    },
    {
      "_id": "59426b2dfea8d3eaf2abe3d6",
      "city": "Rampura Phul",
      "longitude": 75.2420722,
      "latitude": 30.2758165
    },
    {
      "_id": "59426b2dfea8d3eaf2abe3d7",
      "city": "Pipariya",
      "longitude": 78.3486781,
      "latitude": 22.7622132
    },
    {
      "_id": "59426b2dfea8d3eaf2abe3d8",
      "city": "Dalli Rajhara",
      "longitude": 81.0809848,
      "latitude": 20.5831135
    },
    {
      "_id": "59426b2dfea8d3eaf2abe3d9",
      "city": "Punganur",
      "longitude": 78.57501409999999,
      "latitude": 13.36592
    },
    {
      "_id": "59426b2dfea8d3eaf2abe3da",
      "city": "Mattannur",
      "longitude": 75.5734923,
      "latitude": 11.9292845
    },
    {
      "_id": "59426b2dfea8d3eaf2abe3db",
      "city": "Mathura",
      "longitude": 77.673673,
      "latitude": 27.4924134
    },
    {
      "_id": "59426b2dfea8d3eaf2abe3dc",
      "city": "Thakurdwara",
      "longitude": 78.8607099,
      "latitude": 29.1911483
    },
    {
      "_id": "59426b2dfea8d3eaf2abe3dd",
      "city": "Nandheeshwarar Nagar",
      "longitude": 80.0686952,
      "latitude": 12.8462708
    },
    {
      "_id": "59426b2dfea8d3eaf2abe3de",
      "city": "Mulbagal",
      "longitude": 78.39407369999999,
      "latitude": 13.1666533
    },
    {
      "_id": "59426b2dfea8d3eaf2abe3df",
      "city": "Perintalmanna",
      "longitude": 76.22544309999999,
      "latitude": 10.9760357
    },
    {
      "_id": "59426b2dfea8d3eaf2abe3e0",
      "city": "Majalgaon",
      "longitude": 76.2247366,
      "latitude": 19.1865732
    },
    {
      "_id": "59426b2dfea8d3eaf2abe3e1",
      "city": "Wankaner",
      "longitude": 70.9530477,
      "latitude": 22.6213691
    },
    {
      "_id": "59426b2dfea8d3eaf2abe3e2",
      "city": "Sillod",
      "longitude": 75.65281159999999,
      "latitude": 20.3079382
    },
    {
      "_id": "59426b2dfea8d3eaf2abe3e3",
      "city": "Nidadavolu",
      "longitude": 81.6637765,
      "latitude": 16.9016205
    },
    {
      "_id": "59426b2dfea8d3eaf2abe3e4",
      "city": "Shorapur",
      "longitude": 76.76105179999999,
      "latitude": 16.5216887
    },
    {
      "_id": "59426b2dfea8d3eaf2abe3e5",
      "city": "Rajgangpur",
      "longitude": 84.5798623,
      "latitude": 22.190196
    },
    {
      "_id": "59426b2dfea8d3eaf2abe3e6",
      "city": "Sheikhpura",
      "longitude": 85.8895551,
      "latitude": 25.0847746
    },
    {
      "_id": "59426b2dfea8d3eaf2abe3e7",
      "city": "Paralakhemundi",
      "longitude": 84.0936771,
      "latitude": 18.7782646
    },
    {
      "_id": "59426b2dfea8d3eaf2abe3e9",
      "city": "Siruguppa",
      "longitude": 76.9005817,
      "latitude": 15.6175163
    },
    {
      "_id": "59426b2dfea8d3eaf2abe3ea",
      "city": "Arvi",
      "longitude": 78.230741,
      "latitude": 21.0010073
    },
    {
      "_id": "59426b2dfea8d3eaf2abe3eb",
      "city": "Limbdi",
      "longitude": 71.7963228,
      "latitude": 22.5663018
    },
    {
      "_id": "59426b2dfea8d3eaf2abe3ec",
      "city": "Barpeta",
      "longitude": 90.9820668,
      "latitude": 26.3215985
    },
    {
      "_id": "59426b2dfea8d3eaf2abe3ed",
      "city": "Manglaur",
      "longitude": 77.87960199999999,
      "latitude": 29.7920979
    },
    {
      "_id": "59426b2dfea8d3eaf2abe3ee",
      "city": "Repalle",
      "longitude": 80.82947469999999,
      "latitude": 16.0174248
    },
    {
      "_id": "59426b2dfea8d3eaf2abe3ef",
      "city": "Shujalpur",
      "longitude": 76.71633589999999,
      "latitude": 23.3882023
    },
    {
      "_id": "59426b2dfea8d3eaf2abe3f0",
      "city": "Mandvi",
      "longitude": 69.3554783,
      "latitude": 22.833334
    },
    {
      "_id": "59426b2dfea8d3eaf2abe3f1",
      "city": "Thangadh",
      "longitude": 71.2009861,
      "latitude": 22.5761472
    },
    {
      "_id": "59426b2dfea8d3eaf2abe3f2",
      "city": "Sironj",
      "longitude": 77.6707924,
      "latitude": 24.0993031
    },
    {
      "_id": "59426b2dfea8d3eaf2abe3f3",
      "city": "Nandura",
      "longitude": 76.4505243,
      "latitude": 20.8307334
    },
    {
      "_id": "59426b2dfea8d3eaf2abe3f4",
      "city": "Shoranur",
      "longitude": 76.2652909,
      "latitude": 10.7676064
    },
    {
      "_id": "59426b2dfea8d3eaf2abe3f5",
      "city": "Nathdwara",
      "longitude": 73.8213213,
      "latitude": 24.9291411
    },
    {
      "_id": "59426b2dfea8d3eaf2abe3f6",
      "city": "Periyakulam",
      "longitude": 77.5485282,
      "latitude": 10.1188251
    },
    {
      "_id": "59426b2dfea8d3eaf2abe3f7",
      "city": "Mudhol",
      "longitude": 75.2858208,
      "latitude": 16.3333105
    },
    {
      "_id": "59426b2dfea8d3eaf2abe3f8",
      "city": "Sultanganj",
      "longitude": 86.7404395,
      "latitude": 25.2401294
    },
    {
      "_id": "59426b2dfea8d3eaf2abe3f9",
      "city": "Medak",
      "longitude": 78.261853,
      "latitude": 18.0529357
    },
    {
      "_id": "59426b2dfea8d3eaf2abe3fa",
      "city": "Raxaul",
      "longitude": 84.8515804,
      "latitude": 26.9797677
    },
    {
      "_id": "59426b2dfea8d3eaf2abe3fb",
      "city": "Narayanpet",
      "longitude": 77.4960078,
      "latitude": 16.7445112
    },
    {
      "_id": "59426b2dfea8d3eaf2abe3fc",
      "city": "Rajouri",
      "longitude": 74.315191,
      "latitude": 33.3716143
    },
    {
      "_id": "59426b2dfea8d3eaf2abe3fd",
      "city": "Pernambut",
      "longitude": 78.7192776,
      "latitude": 12.9338177
    },
    {
      "_id": "59426b2dfea8d3eaf2abe3fe",
      "city": "Nainital",
      "longitude": 79.4635658,
      "latitude": 29.3803039
    },
    {
      "_id": "59426b2dfea8d3eaf2abe3ff",
      "city": "Ramachandrapuram",
      "longitude": 82.03254009999999,
      "latitude": 16.8372408
    },
    {
      "_id": "59426b2dfea8d3eaf2abe400",
      "city": "Vaijapur",
      "longitude": 74.72848119999999,
      "latitude": 19.9256818
    },
    {
      "_id": "59426b2dfea8d3eaf2abe401",
      "city": "Nangal",
      "longitude": 76.3765753,
      "latitude": 31.3832213
    },
    {
      "_id": "59426b2dfea8d3eaf2abe402",
      "city": "Sidlaghatta",
      "longitude": 77.86531260000001,
      "latitude": 13.3936652
    },
    {
      "_id": "59426b2dfea8d3eaf2abe403",
      "city": "Poonch",
      "longitude": 74.0924041,
      "latitude": 33.76700140000001
    },
    {
      "_id": "59426b2dfea8d3eaf2abe404",
      "city": "Pandhurna",
      "longitude": 78.5291706,
      "latitude": 21.5925296
    },
    {
      "_id": "59426b2dfea8d3eaf2abe405",
      "city": "Wadgaon Road",
      "longitude": 78.10797629999999,
      "latitude": 20.3717825
    },
    {
      "_id": "59426b2dfea8d3eaf2abe406",
      "city": "Talcher",
      "longitude": 85.216816,
      "latitude": 20.9501027
    },
    {
      "_id": "59426b2dfea8d3eaf2abe407",
      "city": "Padrauna",
      "longitude": 83.97971729999999,
      "latitude": 26.8983907
    },
    {
      "_id": "59426b2dfea8d3eaf2abe408",
      "city": "Naila",
      "longitude": 82.56997659999999,
      "latitude": 22.0193063
    },
    {
      "_id": "59426b2dfea8d3eaf2abe409",
      "city": "Mapusa",
      "longitude": 73.8124984,
      "latitude": 15.6002273
    },
    {
      "_id": "59426b2dfea8d3eaf2abe40a",
      "city": "Vellakoil",
      "longitude": 77.7125767,
      "latitude": 10.9459614
    },
    {
      "_id": "59426b2dfea8d3eaf2abe40b",
      "city": "Merta",
      "longitude": 74.0309418,
      "latitude": 26.644952
    },
    {
      "_id": "59426b2dfea8d3eaf2abe40c",
      "city": "Sivaganga",
      "longitude": 78.5660852,
      "latitude": 9.972577
    },
    {
      "_id": "59426b2dfea8d3eaf2abe40d",
      "city": "Mandideep",
      "longitude": 77.5050016,
      "latitude": 23.0987029
    },
    {
      "_id": "59426b2dfea8d3eaf2abe40e",
      "city": "Selu",
      "longitude": 76.4389549,
      "latitude": 19.4532003
    },
    {
      "_id": "59426b2dfea8d3eaf2abe40f",
      "city": "Vyara",
      "longitude": 73.3885526,
      "latitude": 21.1125619
    },
    {
      "_id": "59426b2dfea8d3eaf2abe410",
      "city": "Kovvur",
      "longitude": 81.7267341,
      "latitude": 17.0125213
    },
    {
      "_id": "59426b2dfea8d3eaf2abe411",
      "city": "Vadalur",
      "longitude": 79.5547244,
      "latitude": 11.5573094
    },
    {
      "_id": "59426b2dfea8d3eaf2abe412",
      "city": "Barabanki",
      "longitude": 81.1833809,
      "latitude": 26.9268042
    },
    {
      "_id": "59426b2dfea8d3eaf2abe413",
      "city": "Padra",
      "longitude": 73.0847979,
      "latitude": 22.2394372
    },
    {
      "_id": "59426b2dfea8d3eaf2abe414",
      "city": "Varkala",
      "longitude": 76.71633589999999,
      "latitude": 8.7378685
    },
    {
      "_id": "59426b2dfea8d3eaf2abe415",
      "city": "Sainthia",
      "longitude": 87.68030279999999,
      "latitude": 23.9451403
    },
    {
      "_id": "59426b2dfea8d3eaf2abe416",
      "city": "Siyana",
      "longitude": 78.0609138,
      "latitude": 28.6279101
    },
    {
      "_id": "59426b2dfea8d3eaf2abe417",
      "city": "Shahapur",
      "longitude": 76.8431564,
      "latitude": 16.6956754
    },
    {
      "_id": "59426b2dfea8d3eaf2abe418",
      "city": "Sojat",
      "longitude": 73.6669099,
      "latitude": 25.9246872
    },
    {
      "_id": "59426b2dfea8d3eaf2abe419",
      "city": "Noorpur",
      "longitude": 78.41266,
      "latitude": 29.1511189
    },
    {
      "_id": "59426b2dfea8d3eaf2abe41a",
      "city": "North Paravur",
      "longitude": 76.2299322,
      "latitude": 10.1499581
    },
    {
      "_id": "59426b2dfea8d3eaf2abe41b",
      "city": "Murtizapur",
      "longitude": 77.3678934,
      "latitude": 20.7296406
    },
    {
      "_id": "59426b2dfea8d3eaf2abe41c",
      "city": "Ramnagar",
      "longitude": 84.3238119,
      "latitude": 27.1650187
    },
    {
      "_id": "59426b2dfea8d3eaf2abe41d",
      "city": "Sundargarh",
      "longitude": 84.043175,
      "latitude": 22.1240025
    },
    {
      "_id": "59426b2dfea8d3eaf2abe41e",
      "city": "Taki",
      "longitude": 88.90785269999999,
      "latitude": 22.5863755
    },
    {
      "_id": "59426b2dfea8d3eaf2abe41f",
      "city": "Pilani",
      "longitude": 75.6091696,
      "latitude": 28.3802101
    },
    {
      "_id": "59426b2dfea8d3eaf2abe420",
      "city": "Nowgong",
      "longitude": 79.4396622,
      "latitude": 25.0622533
    },
    {
      "_id": "59426b2dfea8d3eaf2abe421",
      "city": "Saundatti-Yellamma",
      "longitude": 75.1253492,
      "latitude": 15.7521513
    },
    {
      "_id": "59426b2dfea8d3eaf2abe422",
      "city": "Pathanamthitta",
      "longitude": 76.78704139999999,
      "latitude": 9.2647582
    },
    {
      "_id": "59426b2dfea8d3eaf2abe423",
      "city": "Wadi",
      "longitude": 76.98158769999999,
      "latitude": 17.0624325
    },
    {
      "_id": "59426b2dfea8d3eaf2abe424",
      "city": "Rameswaram",
      "longitude": 79.31292909999999,
      "latitude": 9.2876254
    },